[
    {
        "city": "Warszawa", 
        "lat": "52.2167", 
        "lng": "21.0333", 
        "country": "Poland", 
        "iso2": "PL", 
        "admin_name": "Mazowieckie", 
        "capital": "primary", 
        "population": "1790658", 
        "population_proper": "1790658"
    }, 
    {
        "city": "Krak\u00f3w", 
        "lat": "50.0614", 
        "lng": "19.9372", 
        "country": "Poland", 
        "iso2": "PL", 
        "admin_name": "Ma\u0142opolskie", 
        "capital": "admin", 
        "population": "766739", 
        "population_proper": "766739"
    }, 
    {
        "city": "\u0141\u00f3d\u017a", 
        "lat": "51.7769", 
        "lng": "19.4547", 
        "country": "Poland", 
        "iso2": "PL", 
        "admin_name": "\u0141\u00f3dzkie", 
        "capital": "admin", 
        "population": "690422", 
        "population_proper": "690422"
    }, 
    {
        "city": "Wroc\u0142aw", 
        "lat": "51.1077", 
        "lng": "17.0353", 
        "country": "Poland", 
        "iso2": "PL", 
        "admin_name": "Dolno\u015bl\u0105skie", 
        "capital": "admin", 
        "population": "638586", 
        "population_proper": "638586"
    }, 
    {
        "city": "Pozna\u0144", 
        "lat": "52.4000", 
        "lng": "16.9167", 
        "country": "Poland", 
        "iso2": "PL", 
        "admin_name": "Wielkopolskie", 
        "capital": "admin", 
        "population": "538633", 
        "population_proper": "538633"
    }, 
    {
        "city": "Gda\u0144sk", 
        "lat": "54.3667", 
        "lng": "18.6333", 
        "country": "Poland", 
        "iso2": "PL", 
        "admin_name": "Pomorskie", 
        "capital": "admin", 
        "population": "464254", 
        "population_proper": "464254"
    }, 
    {
        "city": "Szczecin", 
        "lat": "53.4247", 
        "lng": "14.5553", 
        "country": "Poland", 
        "iso2": "PL", 
        "admin_name": "Zachodniopomorskie", 
        "capital": "admin", 
        "population": "403833", 
        "population_proper": "403833"
    }, 
    {
        "city": "Bydgoszcz", 
        "lat": "53.1167", 
        "lng": "18.0000", 
        "country": "Poland", 
        "iso2": "PL", 
        "admin_name": "Kujawsko-Pomorskie", 
        "capital": "admin", 
        "population": "358614", 
        "population_proper": "358614"
    }, 
    {
        "city": "Lublin", 
        "lat": "51.2333", 
        "lng": "22.5667", 
        "country": "Poland", 
        "iso2": "PL", 
        "admin_name": "Lubelskie", 
        "capital": "admin", 
        "population": "339850", 
        "population_proper": "339850"
    }, 
    {
        "city": "Bia\u0142ystok", 
        "lat": "53.1167", 
        "lng": "23.1667", 
        "country": "Poland", 
        "iso2": "PL", 
        "admin_name": "Podlaskie", 
        "capital": "admin", 
        "population": "297288", 
        "population_proper": "297288"
    }, 
    {
        "city": "Katowice", 
        "lat": "50.2500", 
        "lng": "19.0000", 
        "country": "Poland", 
        "iso2": "PL", 
        "admin_name": "\u015al\u0105skie", 
        "capital": "admin", 
        "population": "276499", 
        "population_proper": "276499"
    }, 
    {
        "city": "Gdynia", 
        "lat": "54.5189", 
        "lng": "18.5319", 
        "country": "Poland", 
        "iso2": "PL", 
        "admin_name": "Pomorskie", 
        "capital": "minor", 
        "population": "247672", 
        "population_proper": "247672"
    }, 
    {
        "city": "Cz\u0119stochowa", 
        "lat": "50.8000", 
        "lng": "19.1167", 
        "country": "Poland", 
        "iso2": "PL", 
        "admin_name": "\u015al\u0105skie", 
        "capital": "minor", 
        "population": "228179", 
        "population_proper": "228179"
    }, 
    {
        "city": "Radom", 
        "lat": "51.4036", 
        "lng": "21.1567", 
        "country": "Poland", 
        "iso2": "PL", 
        "admin_name": "Mazowieckie", 
        "capital": "minor", 
        "population": "219703", 
        "population_proper": "219703"
    }, 
    {
        "city": "Toru\u0144", 
        "lat": "53.0167", 
        "lng": "18.6167", 
        "country": "Poland", 
        "iso2": "PL", 
        "admin_name": "Kujawsko-Pomorskie", 
        "capital": "admin", 
        "population": "202521", 
        "population_proper": "202521"
    }, 
    {
        "city": "Sosnowiec", 
        "lat": "50.3000", 
        "lng": "19.1667", 
        "country": "Poland", 
        "iso2": "PL", 
        "admin_name": "\u015al\u0105skie", 
        "capital": "minor", 
        "population": "199974", 
        "population_proper": "199974"
    }, 
    {
        "city": "Kielce", 
        "lat": "50.8725", 
        "lng": "20.6319", 
        "country": "Poland", 
        "iso2": "PL", 
        "admin_name": "\u015awi\u0119tokrzyskie", 
        "capital": "admin", 
        "population": "191605", 
        "population_proper": "191605"
    }, 
    {
        "city": "Rzesz\u00f3w", 
        "lat": "50.0500", 
        "lng": "22.0000", 
        "country": "Poland", 
        "iso2": "PL", 
        "admin_name": "Podkarpackie", 
        "capital": "admin", 
        "population": "182548", 
        "population_proper": "182548"
    }, 
    {
        "city": "Gliwice", 
        "lat": "50.2976", 
        "lng": "18.6766", 
        "country": "Poland", 
        "iso2": "PL", 
        "admin_name": "\u015al\u0105skie", 
        "capital": "minor", 
        "population": "179806", 
        "population_proper": "179806"
    }, 
    {
        "city": "Zabrze", 
        "lat": "50.3000", 
        "lng": "18.7833", 
        "country": "Poland", 
        "iso2": "PL", 
        "admin_name": "\u015al\u0105skie", 
        "capital": "minor", 
        "population": "174349", 
        "population_proper": "174349"
    }, 
    {
        "city": "Olsztyn", 
        "lat": "53.7800", 
        "lng": "20.4942", 
        "country": "Poland", 
        "iso2": "PL", 
        "admin_name": "Warmi\u0144sko-Mazurskie", 
        "capital": "admin", 
        "population": "173599", 
        "population_proper": "173599"
    }, 
    {
        "city": "Bielsko-Bia\u0142a", 
        "lat": "49.8225", 
        "lng": "19.0444", 
        "country": "Poland", 
        "iso2": "PL", 
        "admin_name": "\u015al\u0105skie", 
        "capital": "minor", 
        "population": "172781", 
        "population_proper": "172781"
    }, 
    {
        "city": "Bytom", 
        "lat": "50.3470", 
        "lng": "18.9230", 
        "country": "Poland", 
        "iso2": "PL", 
        "admin_name": "\u015al\u0105skie", 
        "capital": "minor", 
        "population": "171515", 
        "population_proper": "171515"
    }, 
    {
        "city": "Rybnik", 
        "lat": "50.0833", 
        "lng": "18.5000", 
        "country": "Poland", 
        "iso2": "PL", 
        "admin_name": "\u015al\u0105skie", 
        "capital": "minor", 
        "population": "141000", 
        "population_proper": "141000"
    }, 
    {
        "city": "Ruda \u015al\u0105ska", 
        "lat": "50.2628", 
        "lng": "18.8536", 
        "country": "Poland", 
        "iso2": "PL", 
        "admin_name": "\u015al\u0105skie", 
        "capital": "minor", 
        "population": "139412", 
        "population_proper": "139412"
    }, 
    {
        "city": "Zielona G\u00f3ra", 
        "lat": "51.9397", 
        "lng": "15.5050", 
        "country": "Poland", 
        "iso2": "PL", 
        "admin_name": "Lubuskie", 
        "capital": "admin", 
        "population": "139330", 
        "population_proper": "139330"
    }, 
    {
        "city": "Tychy", 
        "lat": "50.1667", 
        "lng": "19.0000", 
        "country": "Poland", 
        "iso2": "PL", 
        "admin_name": "\u015al\u0105skie", 
        "capital": "minor", 
        "population": "129322", 
        "population_proper": "129322"
    }, 
    {
        "city": "Opole", 
        "lat": "50.6722", 
        "lng": "17.9253", 
        "country": "Poland", 
        "iso2": "PL", 
        "admin_name": "Opolskie", 
        "capital": "admin", 
        "population": "127792", 
        "population_proper": "127792"
    }, 
    {
        "city": "Gorz\u00f3w Wielkopolski", 
        "lat": "52.7333", 
        "lng": "15.2500", 
        "country": "Poland", 
        "iso2": "PL", 
        "admin_name": "Lubuskie", 
        "capital": "admin", 
        "population": "124295", 
        "population_proper": "124295"
    }, 
    {
        "city": "D\u0105browa G\u00f3rnicza", 
        "lat": "50.3239", 
        "lng": "19.1947", 
        "country": "Poland", 
        "iso2": "PL", 
        "admin_name": "\u015al\u0105skie", 
        "capital": "minor", 
        "population": "122712", 
        "population_proper": "122712"
    }, 
    {
        "city": "Elbl\u0105g", 
        "lat": "54.1667", 
        "lng": "19.4000", 
        "country": "Poland", 
        "iso2": "PL", 
        "admin_name": "Warmi\u0144sko-Mazurskie", 
        "capital": "minor", 
        "population": "122568", 
        "population_proper": "122568"
    }, 
    {
        "city": "P\u0142ock", 
        "lat": "52.5500", 
        "lng": "19.7000", 
        "country": "Poland", 
        "iso2": "PL", 
        "admin_name": "Mazowieckie", 
        "capital": "minor", 
        "population": "120000", 
        "population_proper": "120000"
    }, 
    {
        "city": "Wa\u0142brzych", 
        "lat": "50.7667", 
        "lng": "16.2833", 
        "country": "Poland", 
        "iso2": "PL", 
        "admin_name": "Dolno\u015bl\u0105skie", 
        "capital": "minor", 
        "population": "116069", 
        "population_proper": "116069"
    }, 
    {
        "city": "Chorz\u00f3w", 
        "lat": "50.3000", 
        "lng": "18.9500", 
        "country": "Poland", 
        "iso2": "PL", 
        "admin_name": "\u015al\u0105skie", 
        "capital": "minor", 
        "population": "111536", 
        "population_proper": "111536"
    }, 
    {
        "city": "Tarn\u00f3w", 
        "lat": "50.0125", 
        "lng": "20.9883", 
        "country": "Poland", 
        "iso2": "PL", 
        "admin_name": "Ma\u0142opolskie", 
        "capital": "minor", 
        "population": "110956", 
        "population_proper": "110956"
    }, 
    {
        "city": "W\u0142oc\u0142awek", 
        "lat": "52.6500", 
        "lng": "19.0500", 
        "country": "Poland", 
        "iso2": "PL", 
        "admin_name": "Kujawsko-Pomorskie", 
        "capital": "minor", 
        "population": "110802", 
        "population_proper": "110802"
    }, 
    {
        "city": "Koszalin", 
        "lat": "54.1903", 
        "lng": "16.1817", 
        "country": "Poland", 
        "iso2": "PL", 
        "admin_name": "Zachodniopomorskie", 
        "capital": "minor", 
        "population": "108576", 
        "population_proper": "108576"
    }, 
    {
        "city": "Kalisz", 
        "lat": "51.7570", 
        "lng": "18.0830", 
        "country": "Poland", 
        "iso2": "PL", 
        "admin_name": "Wielkopolskie", 
        "capital": "minor", 
        "population": "103738", 
        "population_proper": "103738"
    }, 
    {
        "city": "Legnica", 
        "lat": "51.2101", 
        "lng": "16.1619", 
        "country": "Poland", 
        "iso2": "PL", 
        "admin_name": "Dolno\u015bl\u0105skie", 
        "capital": "minor", 
        "population": "101133", 
        "population_proper": "101133"
    }, 
    {
        "city": "Grudzi\u0105dz", 
        "lat": "53.4925", 
        "lng": "18.7761", 
        "country": "Poland", 
        "iso2": "PL", 
        "admin_name": "Kujawsko-Pomorskie", 
        "capital": "minor", 
        "population": "95964", 
        "population_proper": "95964"
    }, 
    {
        "city": "Jaworzno", 
        "lat": "50.2000", 
        "lng": "19.2750", 
        "country": "Poland", 
        "iso2": "PL", 
        "admin_name": "\u015al\u0105skie", 
        "capital": "minor", 
        "population": "94305", 
        "population_proper": "94305"
    }, 
    {
        "city": "Jelenia G\u00f3ra", 
        "lat": "50.9000", 
        "lng": "15.7333", 
        "country": "Poland", 
        "iso2": "PL", 
        "admin_name": "Dolno\u015bl\u0105skie", 
        "capital": "minor", 
        "population": "84306", 
        "population_proper": "84306"
    }, 
    {
        "city": "Siedlce", 
        "lat": "52.1833", 
        "lng": "22.2833", 
        "country": "Poland", 
        "iso2": "PL", 
        "admin_name": "Mazowieckie", 
        "capital": "minor", 
        "population": "76585", 
        "population_proper": "76585"
    }, 
    {
        "city": "Inowroc\u0142aw", 
        "lat": "52.7958", 
        "lng": "18.2611", 
        "country": "Poland", 
        "iso2": "PL", 
        "admin_name": "Kujawsko-Pomorskie", 
        "capital": "minor", 
        "population": "76086", 
        "population_proper": "76086"
    }, 
    {
        "city": "Mys\u0142owice", 
        "lat": "50.2333", 
        "lng": "19.1333", 
        "country": "Poland", 
        "iso2": "PL", 
        "admin_name": "\u015al\u0105skie", 
        "capital": "minor", 
        "population": "75183", 
        "population_proper": "75183"
    }, 
    {
        "city": "Piotrk\u00f3w Trybunalski", 
        "lat": "51.4000", 
        "lng": "19.6833", 
        "country": "Poland", 
        "iso2": "PL", 
        "admin_name": "\u0141\u00f3dzkie", 
        "capital": "minor", 
        "population": "74905", 
        "population_proper": "74905"
    }, 
    {
        "city": "Ostrowiec \u015awi\u0119tokrzyski", 
        "lat": "50.9333", 
        "lng": "21.4000", 
        "country": "Poland", 
        "iso2": "PL", 
        "admin_name": "\u015awi\u0119tokrzyskie", 
        "capital": "minor", 
        "population": "72001", 
        "population_proper": "72001"
    }, 
    {
        "city": "Gniezno", 
        "lat": "52.5333", 
        "lng": "17.6000", 
        "country": "Poland", 
        "iso2": "PL", 
        "admin_name": "Wielkopolskie", 
        "capital": "minor", 
        "population": "70083", 
        "population_proper": "70083"
    }, 
    {
        "city": "Suwa\u0142ki", 
        "lat": "54.0833", 
        "lng": "22.9333", 
        "country": "Poland", 
        "iso2": "PL", 
        "admin_name": "Podlaskie", 
        "capital": "minor", 
        "population": "69626", 
        "population_proper": "69626"
    }, 
    {
        "city": "Przemy\u015bl", 
        "lat": "49.7850", 
        "lng": "22.7673", 
        "country": "Poland", 
        "iso2": "PL", 
        "admin_name": "Podkarpackie", 
        "capital": "minor", 
        "population": "67847", 
        "population_proper": "67847"
    }, 
    {
        "city": "Pabianice", 
        "lat": "51.6642", 
        "lng": "19.3500", 
        "country": "Poland", 
        "iso2": "PL", 
        "admin_name": "\u0141\u00f3dzkie", 
        "capital": "minor", 
        "population": "64988", 
        "population_proper": "64988"
    }, 
    {
        "city": "Che\u0142m", 
        "lat": "51.1333", 
        "lng": "23.4833", 
        "country": "Poland", 
        "iso2": "PL", 
        "admin_name": "Lubelskie", 
        "capital": "minor", 
        "population": "63734", 
        "population_proper": "63734"
    }, 
    {
        "city": "\u0141om\u017ca", 
        "lat": "53.1833", 
        "lng": "22.0833", 
        "country": "Poland", 
        "iso2": "PL", 
        "admin_name": "Podlaskie", 
        "capital": "minor", 
        "population": "62700", 
        "population_proper": "62700"
    }, 
    {
        "city": "Pruszk\u00f3w", 
        "lat": "52.1667", 
        "lng": "20.8000", 
        "country": "Poland", 
        "iso2": "PL", 
        "admin_name": "Mazowieckie", 
        "capital": "minor", 
        "population": "61237", 
        "population_proper": "61237"
    }, 
    {
        "city": "Tarnowskie G\u00f3ry", 
        "lat": "50.4500", 
        "lng": "18.8667", 
        "country": "Poland", 
        "iso2": "PL", 
        "admin_name": "\u015al\u0105skie", 
        "capital": "minor", 
        "population": "60879", 
        "population_proper": "60879"
    }, 
    {
        "city": "Mielec", 
        "lat": "50.2833", 
        "lng": "21.4333", 
        "country": "Poland", 
        "iso2": "PL", 
        "admin_name": "Podkarpackie", 
        "capital": "minor", 
        "population": "60628", 
        "population_proper": "60628"
    }, 
    {
        "city": "E\u0142k", 
        "lat": "53.8167", 
        "lng": "22.3500", 
        "country": "Poland", 
        "iso2": "PL", 
        "admin_name": "Warmi\u0144sko-Mazurskie", 
        "capital": "minor", 
        "population": "60621", 
        "population_proper": "60621"
    }, 
    {
        "city": "Be\u0142chat\u00f3w", 
        "lat": "51.3667", 
        "lng": "19.3667", 
        "country": "Poland", 
        "iso2": "PL", 
        "admin_name": "\u0141\u00f3dzkie", 
        "capital": "minor", 
        "population": "59025", 
        "population_proper": "59025"
    }, 
    {
        "city": "\u015awidnica", 
        "lat": "50.8438", 
        "lng": "16.4886", 
        "country": "Poland", 
        "iso2": "PL", 
        "admin_name": "Dolno\u015bl\u0105skie", 
        "capital": "minor", 
        "population": "57761", 
        "population_proper": "57761"
    }, 
    {
        "city": "Bia\u0142a Podlaska", 
        "lat": "52.0333", 
        "lng": "23.1167", 
        "country": "Poland", 
        "iso2": "PL", 
        "admin_name": "Lubelskie", 
        "capital": "minor", 
        "population": "57498", 
        "population_proper": "57498"
    }, 
    {
        "city": "Ostro\u0142\u0119ka", 
        "lat": "53.0833", 
        "lng": "21.5667", 
        "country": "Poland", 
        "iso2": "PL", 
        "admin_name": "Mazowieckie", 
        "capital": "minor", 
        "population": "52900", 
        "population_proper": "52900"
    }, 
    {
        "city": "Pu\u0142awy", 
        "lat": "51.4166", 
        "lng": "21.9694", 
        "country": "Poland", 
        "iso2": "PL", 
        "admin_name": "Lubelskie", 
        "capital": "minor", 
        "population": "49839", 
        "population_proper": "49839"
    }, 
    {
        "city": "Starogard Gda\u0144ski", 
        "lat": "53.9667", 
        "lng": "18.5333", 
        "country": "Poland", 
        "iso2": "PL", 
        "admin_name": "Pomorskie", 
        "capital": "minor", 
        "population": "48690", 
        "population_proper": "48690"
    }, 
    {
        "city": "Skierniewice", 
        "lat": "51.9528", 
        "lng": "20.1417", 
        "country": "Poland", 
        "iso2": "PL", 
        "admin_name": "\u0141\u00f3dzkie", 
        "capital": "minor", 
        "population": "47837", 
        "population_proper": "47837"
    }, 
    {
        "city": "Tarnobrzeg", 
        "lat": "50.5833", 
        "lng": "21.6833", 
        "country": "Poland", 
        "iso2": "PL", 
        "admin_name": "Podkarpackie", 
        "capital": "minor", 
        "population": "47816", 
        "population_proper": "47816"
    }, 
    {
        "city": "Kutno", 
        "lat": "52.2333", 
        "lng": "19.3667", 
        "country": "Poland", 
        "iso2": "PL", 
        "admin_name": "\u0141\u00f3dzkie", 
        "capital": "minor", 
        "population": "47557", 
        "population_proper": "47557"
    }, 
    {
        "city": "Rumia", 
        "lat": "54.5667", 
        "lng": "18.4000", 
        "country": "Poland", 
        "iso2": "PL", 
        "admin_name": "Pomorskie", 
        "capital": "", 
        "population": "47148", 
        "population_proper": "47148"
    }, 
    {
        "city": "Nysa", 
        "lat": "50.4738", 
        "lng": "17.3344", 
        "country": "Poland", 
        "iso2": "PL", 
        "admin_name": "Opolskie", 
        "capital": "minor", 
        "population": "46841", 
        "population_proper": "46841"
    }, 
    {
        "city": "Ko\u0142obrzeg", 
        "lat": "54.1667", 
        "lng": "15.5667", 
        "country": "Poland", 
        "iso2": "PL", 
        "admin_name": "Zachodniopomorskie", 
        "capital": "minor", 
        "population": "46716", 
        "population_proper": "46716"
    }, 
    {
        "city": "Ciechan\u00f3w", 
        "lat": "52.8817", 
        "lng": "20.6106", 
        "country": "Poland", 
        "iso2": "PL", 
        "admin_name": "Mazowieckie", 
        "capital": "minor", 
        "population": "46112", 
        "population_proper": "46112"
    }, 
    {
        "city": "\u015awidnik", 
        "lat": "51.2333", 
        "lng": "22.7000", 
        "country": "Poland", 
        "iso2": "PL", 
        "admin_name": "Lubelskie", 
        "capital": "minor", 
        "population": "42797", 
        "population_proper": "42797"
    }, 
    {
        "city": "Otwock", 
        "lat": "52.1167", 
        "lng": "21.2667", 
        "country": "Poland", 
        "iso2": "PL", 
        "admin_name": "Mazowieckie", 
        "capital": "minor", 
        "population": "42765", 
        "population_proper": "42765"
    }, 
    {
        "city": "Sieradz", 
        "lat": "51.6000", 
        "lng": "18.7500", 
        "country": "Poland", 
        "iso2": "PL", 
        "admin_name": "\u0141\u00f3dzkie", 
        "capital": "minor", 
        "population": "42120", 
        "population_proper": "42120"
    }, 
    {
        "city": "Miko\u0142\u00f3w", 
        "lat": "50.1710", 
        "lng": "18.9041", 
        "country": "Poland", 
        "iso2": "PL", 
        "admin_name": "\u015al\u0105skie", 
        "capital": "minor", 
        "population": "42053", 
        "population_proper": "42053"
    }, 
    {
        "city": "\u015awinouj\u015bcie", 
        "lat": "53.9167", 
        "lng": "14.2500", 
        "country": "Poland", 
        "iso2": "PL", 
        "admin_name": "Zachodniopomorskie", 
        "capital": "minor", 
        "population": "41479", 
        "population_proper": "41479"
    }, 
    {
        "city": "Kwidzyn", 
        "lat": "53.7358", 
        "lng": "18.9308", 
        "country": "Poland", 
        "iso2": "PL", 
        "admin_name": "Pomorskie", 
        "capital": "minor", 
        "population": "40008", 
        "population_proper": "40008"
    }, 
    {
        "city": "Nowa S\u00f3l", 
        "lat": "51.8000", 
        "lng": "15.7167", 
        "country": "Poland", 
        "iso2": "PL", 
        "admin_name": "Lubuskie", 
        "capital": "minor", 
        "population": "39721", 
        "population_proper": "39721"
    }, 
    {
        "city": "Boles\u0142awiec", 
        "lat": "51.2667", 
        "lng": "15.5667", 
        "country": "Poland", 
        "iso2": "PL", 
        "admin_name": "Dolno\u015bl\u0105skie", 
        "capital": "minor", 
        "population": "39412", 
        "population_proper": "39412"
    }, 
    {
        "city": "O\u015bwi\u0119cim", 
        "lat": "50.0333", 
        "lng": "19.2333", 
        "country": "Poland", 
        "iso2": "PL", 
        "admin_name": "Ma\u0142opolskie", 
        "capital": "minor", 
        "population": "39057", 
        "population_proper": "39057"
    }, 
    {
        "city": "Chrzan\u00f3w", 
        "lat": "50.1333", 
        "lng": "19.4000", 
        "country": "Poland", 
        "iso2": "PL", 
        "admin_name": "Ma\u0142opolskie", 
        "capital": "minor", 
        "population": "38989", 
        "population_proper": "38989"
    }, 
    {
        "city": "Malbork", 
        "lat": "54.0285", 
        "lng": "19.0444", 
        "country": "Poland", 
        "iso2": "PL", 
        "admin_name": "Pomorskie", 
        "capital": "minor", 
        "population": "38895", 
        "population_proper": "38895"
    }, 
    {
        "city": "Jaros\u0142aw", 
        "lat": "50.0162", 
        "lng": "22.6778", 
        "country": "Poland", 
        "iso2": "PL", 
        "admin_name": "Podkarpackie", 
        "capital": "minor", 
        "population": "38796", 
        "population_proper": "38796"
    }, 
    {
        "city": "\u017bary", 
        "lat": "51.6333", 
        "lng": "15.1333", 
        "country": "Poland", 
        "iso2": "PL", 
        "admin_name": "Lubuskie", 
        "capital": "minor", 
        "population": "37502", 
        "population_proper": "37502"
    }, 
    {
        "city": "Sopot", 
        "lat": "54.4419", 
        "lng": "18.5478", 
        "country": "Poland", 
        "iso2": "PL", 
        "admin_name": "Pomorskie", 
        "capital": "minor", 
        "population": "37457", 
        "population_proper": "37457"
    }, 
    {
        "city": "Brzeg", 
        "lat": "50.8667", 
        "lng": "17.4833", 
        "country": "Poland", 
        "iso2": "PL", 
        "admin_name": "Opolskie", 
        "capital": "minor", 
        "population": "36541", 
        "population_proper": "36541"
    }, 
    {
        "city": "L\u0119bork", 
        "lat": "54.5500", 
        "lng": "17.7500", 
        "country": "Poland", 
        "iso2": "PL", 
        "admin_name": "Pomorskie", 
        "capital": "minor", 
        "population": "35374", 
        "population_proper": "35374"
    }, 
    {
        "city": "Cieszyn", 
        "lat": "49.7500", 
        "lng": "18.6333", 
        "country": "Poland", 
        "iso2": "PL", 
        "admin_name": "\u015al\u0105skie", 
        "capital": "minor", 
        "population": "34513", 
        "population_proper": "34513"
    }, 
    {
        "city": "Czelad\u017a", 
        "lat": "50.3333", 
        "lng": "19.0833", 
        "country": "Poland", 
        "iso2": "PL", 
        "admin_name": "\u015al\u0105skie", 
        "capital": "", 
        "population": "34402", 
        "population_proper": "34402"
    }, 
    {
        "city": "Nowy Targ", 
        "lat": "49.4833", 
        "lng": "20.0333", 
        "country": "Poland", 
        "iso2": "PL", 
        "admin_name": "Ma\u0142opolskie", 
        "capital": "minor", 
        "population": "33545", 
        "population_proper": "33545"
    }, 
    {
        "city": "Police", 
        "lat": "53.5500", 
        "lng": "14.5708", 
        "country": "Poland", 
        "iso2": "PL", 
        "admin_name": "Zachodniopomorskie", 
        "capital": "minor", 
        "population": "33152", 
        "population_proper": "33152"
    }, 
    {
        "city": "Zgorzelec", 
        "lat": "51.1528", 
        "lng": "15.0000", 
        "country": "Poland", 
        "iso2": "PL", 
        "admin_name": "Dolno\u015bl\u0105skie", 
        "capital": "minor", 
        "population": "31359", 
        "population_proper": "31359"
    }, 
    {
        "city": "\u0141uk\u00f3w", 
        "lat": "51.9167", 
        "lng": "22.3833", 
        "country": "Poland", 
        "iso2": "PL", 
        "admin_name": "Lubelskie", 
        "capital": "minor", 
        "population": "30381", 
        "population_proper": "30381"
    }, 
    {
        "city": "Bielawa", 
        "lat": "50.6908", 
        "lng": "16.6230", 
        "country": "Poland", 
        "iso2": "PL", 
        "admin_name": "Dolno\u015bl\u0105skie", 
        "capital": "", 
        "population": "30207", 
        "population_proper": "30207"
    }, 
    {
        "city": "Bochnia", 
        "lat": "49.9833", 
        "lng": "20.4333", 
        "country": "Poland", 
        "iso2": "PL", 
        "admin_name": "Ma\u0142opolskie", 
        "capital": "minor", 
        "population": "30075", 
        "population_proper": "30075"
    }, 
    {
        "city": "M\u0142awa", 
        "lat": "53.1167", 
        "lng": "20.3667", 
        "country": "Poland", 
        "iso2": "PL", 
        "admin_name": "Mazowieckie", 
        "capital": "minor", 
        "population": "29836", 
        "population_proper": "29836"
    }, 
    {
        "city": "Krotoszyn", 
        "lat": "51.6970", 
        "lng": "17.4357", 
        "country": "Poland", 
        "iso2": "PL", 
        "admin_name": "Wielkopolskie", 
        "capital": "minor", 
        "population": "29379", 
        "population_proper": "29379"
    }, 
    {
        "city": "K\u0119trzyn", 
        "lat": "54.0833", 
        "lng": "21.3833", 
        "country": "Poland", 
        "iso2": "PL", 
        "admin_name": "Warmi\u0144sko-Mazurskie", 
        "capital": "minor", 
        "population": "27827", 
        "population_proper": "27827"
    }, 
    {
        "city": "Gorlice", 
        "lat": "49.6556", 
        "lng": "21.1604", 
        "country": "Poland", 
        "iso2": "PL", 
        "admin_name": "Ma\u0142opolskie", 
        "capital": "minor", 
        "population": "27597", 
        "population_proper": "27597"
    }, 
    {
        "city": "Zakopane", 
        "lat": "49.2994", 
        "lng": "19.9519", 
        "country": "Poland", 
        "iso2": "PL", 
        "admin_name": "Ma\u0142opolskie", 
        "capital": "minor", 
        "population": "27490", 
        "population_proper": "27490"
    }, 
    {
        "city": "Bi\u0142goraj", 
        "lat": "50.5500", 
        "lng": "22.7333", 
        "country": "Poland", 
        "iso2": "PL", 
        "admin_name": "Lubelskie", 
        "capital": "minor", 
        "population": "27290", 
        "population_proper": "27290"
    }, 
    {
        "city": "K\u0142odzko", 
        "lat": "50.4378", 
        "lng": "16.6528", 
        "country": "Poland", 
        "iso2": "PL", 
        "admin_name": "Dolno\u015bl\u0105skie", 
        "capital": "minor", 
        "population": "27193", 
        "population_proper": "27193"
    }, 
    {
        "city": "Lubo\u0144", 
        "lat": "52.3333", 
        "lng": "16.8833", 
        "country": "Poland", 
        "iso2": "PL", 
        "admin_name": "Wielkopolskie", 
        "capital": "", 
        "population": "27000", 
        "population_proper": "27000"
    }, 
    {
        "city": "Grodzisk Mazowiecki", 
        "lat": "52.1039", 
        "lng": "20.6337", 
        "country": "Poland", 
        "iso2": "PL", 
        "admin_name": "Mazowieckie", 
        "capital": "minor", 
        "population": "26881", 
        "population_proper": "26881"
    }, 
    {
        "city": "Brzoz\u00f3w", 
        "lat": "49.6953", 
        "lng": "22.0194", 
        "country": "Poland", 
        "iso2": "PL", 
        "admin_name": "Podkarpackie", 
        "capital": "minor", 
        "population": "26615", 
        "population_proper": "26615"
    }, 
    {
        "city": "Bielsk Podlaski", 
        "lat": "52.7667", 
        "lng": "23.2000", 
        "country": "Poland", 
        "iso2": "PL", 
        "admin_name": "Podlaskie", 
        "capital": "minor", 
        "population": "26493", 
        "population_proper": "26493"
    }, 
    {
        "city": "Wa\u0142cz", 
        "lat": "53.2667", 
        "lng": "16.4667", 
        "country": "Poland", 
        "iso2": "PL", 
        "admin_name": "Zachodniopomorskie", 
        "capital": "minor", 
        "population": "26354", 
        "population_proper": "26354"
    }, 
    {
        "city": "Kluczbork", 
        "lat": "50.9833", 
        "lng": "18.2167", 
        "country": "Poland", 
        "iso2": "PL", 
        "admin_name": "Opolskie", 
        "capital": "minor", 
        "population": "26164", 
        "population_proper": "26164"
    }, 
    {
        "city": "\u015awiecie", 
        "lat": "53.4167", 
        "lng": "18.4333", 
        "country": "Poland", 
        "iso2": "PL", 
        "admin_name": "Kujawsko-Pomorskie", 
        "capital": "minor", 
        "population": "26026", 
        "population_proper": "26026"
    }, 
    {
        "city": "Bia\u0142ogard", 
        "lat": "54.0070", 
        "lng": "15.9875", 
        "country": "Poland", 
        "iso2": "PL", 
        "admin_name": "Zachodniopomorskie", 
        "capital": "minor", 
        "population": "24570", 
        "population_proper": "24570"
    }, 
    {
        "city": "W\u0105growiec", 
        "lat": "52.8000", 
        "lng": "17.2000", 
        "country": "Poland", 
        "iso2": "PL", 
        "admin_name": "Wielkopolskie", 
        "capital": "minor", 
        "population": "24529", 
        "population_proper": "24529"
    }, 
    {
        "city": "Sandomierz", 
        "lat": "50.6833", 
        "lng": "21.7500", 
        "country": "Poland", 
        "iso2": "PL", 
        "admin_name": "\u015awi\u0119tokrzyskie", 
        "capital": "minor", 
        "population": "24187", 
        "population_proper": "24187"
    }, 
    {
        "city": "Ko\u015bcian", 
        "lat": "52.0833", 
        "lng": "16.6500", 
        "country": "Poland", 
        "iso2": "PL", 
        "admin_name": "Wielkopolskie", 
        "capital": "minor", 
        "population": "24086", 
        "population_proper": "24086"
    }, 
    {
        "city": "Jawor", 
        "lat": "51.0500", 
        "lng": "16.1833", 
        "country": "Poland", 
        "iso2": "PL", 
        "admin_name": "Dolno\u015bl\u0105skie", 
        "capital": "minor", 
        "population": "24070", 
        "population_proper": "24070"
    }, 
    {
        "city": "Konstancin-Jeziorna", 
        "lat": "52.0938", 
        "lng": "21.1176", 
        "country": "Poland", 
        "iso2": "PL", 
        "admin_name": "Mazowieckie", 
        "capital": "", 
        "population": "23694", 
        "population_proper": "23694"
    }, 
    {
        "city": "Bieru\u0144 Stary", 
        "lat": "50.0897", 
        "lng": "19.0928", 
        "country": "Poland", 
        "iso2": "PL", 
        "admin_name": "\u015al\u0105skie", 
        "capital": "", 
        "population": "23640", 
        "population_proper": "23640"
    }, 
    {
        "city": "Szczytno", 
        "lat": "53.5628", 
        "lng": "20.9853", 
        "country": "Poland", 
        "iso2": "PL", 
        "admin_name": "Warmi\u0144sko-Mazurskie", 
        "capital": "minor", 
        "population": "23500", 
        "population_proper": "23500"
    }, 
    {
        "city": "Piast\u00f3w", 
        "lat": "52.1833", 
        "lng": "20.8500", 
        "country": "Poland", 
        "iso2": "PL", 
        "admin_name": "Mazowieckie", 
        "capital": "", 
        "population": "23332", 
        "population_proper": "23332"
    }, 
    {
        "city": "Ostr\u00f3w Mazowiecka", 
        "lat": "52.8000", 
        "lng": "21.9000", 
        "country": "Poland", 
        "iso2": "PL", 
        "admin_name": "Mazowieckie", 
        "capital": "minor", 
        "population": "22800", 
        "population_proper": "22800"
    }, 
    {
        "city": "Lubart\u00f3w", 
        "lat": "51.4667", 
        "lng": "22.6000", 
        "country": "Poland", 
        "iso2": "PL", 
        "admin_name": "Lubelskie", 
        "capital": "minor", 
        "population": "22138", 
        "population_proper": "22138"
    }, 
    {
        "city": "\u015awiedbodzin", 
        "lat": "52.2500", 
        "lng": "15.5333", 
        "country": "Poland", 
        "iso2": "PL", 
        "admin_name": "Lubuskie", 
        "capital": "minor", 
        "population": "21988", 
        "population_proper": "21988"
    }, 
    {
        "city": "\u0141aziska G\u00f3rne", 
        "lat": "50.1500", 
        "lng": "18.8333", 
        "country": "Poland", 
        "iso2": "PL", 
        "admin_name": "\u015al\u0105skie", 
        "capital": "", 
        "population": "21958", 
        "population_proper": "21958"
    }, 
    {
        "city": "Wieliczka", 
        "lat": "49.9894", 
        "lng": "20.0661", 
        "country": "Poland", 
        "iso2": "PL", 
        "admin_name": "Ma\u0142opolskie", 
        "capital": "minor", 
        "population": "21878", 
        "population_proper": "21878"
    }, 
    {
        "city": "\u0141\u0119czna", 
        "lat": "51.3000", 
        "lng": "22.8833", 
        "country": "Poland", 
        "iso2": "PL", 
        "admin_name": "Lubelskie", 
        "capital": "minor", 
        "population": "21802", 
        "population_proper": "21802"
    }, 
    {
        "city": "Opoczno", 
        "lat": "51.3833", 
        "lng": "20.2833", 
        "country": "Poland", 
        "iso2": "PL", 
        "admin_name": "\u0141\u00f3dzkie", 
        "capital": "minor", 
        "population": "21780", 
        "population_proper": "21780"
    }, 
    {
        "city": "Gryfino", 
        "lat": "53.2524", 
        "lng": "14.4883", 
        "country": "Poland", 
        "iso2": "PL", 
        "admin_name": "Zachodniopomorskie", 
        "capital": "minor", 
        "population": "21555", 
        "population_proper": "21555"
    }, 
    {
        "city": "Hajn\u00f3wka", 
        "lat": "52.7333", 
        "lng": "23.5667", 
        "country": "Poland", 
        "iso2": "PL", 
        "admin_name": "Podlaskie", 
        "capital": "minor", 
        "population": "21442", 
        "population_proper": "21442"
    }, 
    {
        "city": "Prudnik", 
        "lat": "50.3197", 
        "lng": "17.5792", 
        "country": "Poland", 
        "iso2": "PL", 
        "admin_name": "Opolskie", 
        "capital": "minor", 
        "population": "21237", 
        "population_proper": "21237"
    }, 
    {
        "city": "Che\u0142mno", 
        "lat": "53.3492", 
        "lng": "18.4261", 
        "country": "Poland", 
        "iso2": "PL", 
        "admin_name": "Kujawsko-Pomorskie", 
        "capital": "minor", 
        "population": "20428", 
        "population_proper": "20428"
    }, 
    {
        "city": "Pleszew", 
        "lat": "51.8974", 
        "lng": "17.7856", 
        "country": "Poland", 
        "iso2": "PL", 
        "admin_name": "Wielkopolskie", 
        "capital": "minor", 
        "population": "20365", 
        "population_proper": "20365"
    }, 
    {
        "city": "D\u0119blin", 
        "lat": "51.5667", 
        "lng": "21.8614", 
        "country": "Poland", 
        "iso2": "PL", 
        "admin_name": "Lubelskie", 
        "capital": "", 
        "population": "19513", 
        "population_proper": "19513"
    }, 
    {
        "city": "Nak\u0142o nad Noteci\u0105", 
        "lat": "53.1421", 
        "lng": "17.6018", 
        "country": "Poland", 
        "iso2": "PL", 
        "admin_name": "Kujawsko-Pomorskie", 
        "capital": "minor", 
        "population": "19507", 
        "population_proper": "19507"
    }, 
    {
        "city": "K\u0119ty", 
        "lat": "49.8821", 
        "lng": "19.2233", 
        "country": "Poland", 
        "iso2": "PL", 
        "admin_name": "Ma\u0142opolskie", 
        "capital": "", 
        "population": "19428", 
        "population_proper": "19428"
    }, 
    {
        "city": "Gostynin", 
        "lat": "52.4167", 
        "lng": "19.4667", 
        "country": "Poland", 
        "iso2": "PL", 
        "admin_name": "Mazowieckie", 
        "capital": "minor", 
        "population": "19414", 
        "population_proper": "19414"
    }, 
    {
        "city": "Pu\u0142tusk", 
        "lat": "52.7025", 
        "lng": "21.0828", 
        "country": "Poland", 
        "iso2": "PL", 
        "admin_name": "Mazowieckie", 
        "capital": "minor", 
        "population": "19229", 
        "population_proper": "19229"
    }, 
    {
        "city": "Mi\u0119dzyrzecz", 
        "lat": "52.4446", 
        "lng": "15.5780", 
        "country": "Poland", 
        "iso2": "PL", 
        "admin_name": "Lubuskie", 
        "capital": "minor", 
        "population": "18459", 
        "population_proper": "18459"
    }, 
    {
        "city": "Kostrzyn nad Odr\u0105", 
        "lat": "52.5883", 
        "lng": "14.6667", 
        "country": "Poland", 
        "iso2": "PL", 
        "admin_name": "Lubuskie", 
        "capital": "", 
        "population": "18125", 
        "population_proper": "18125"
    }, 
    {
        "city": "Oborniki", 
        "lat": "52.6500", 
        "lng": "16.8167", 
        "country": "Poland", 
        "iso2": "PL", 
        "admin_name": "Wielkopolskie", 
        "capital": "minor", 
        "population": "17895", 
        "population_proper": "17895"
    }, 
    {
        "city": "Rawa Mazowiecka", 
        "lat": "51.7667", 
        "lng": "20.2500", 
        "country": "Poland", 
        "iso2": "PL", 
        "admin_name": "\u0141\u00f3dzkie", 
        "capital": "minor", 
        "population": "17765", 
        "population_proper": "17765"
    }, 
    {
        "city": "\u0141a\u0144cut", 
        "lat": "50.0687", 
        "lng": "22.2291", 
        "country": "Poland", 
        "iso2": "PL", 
        "admin_name": "Podkarpackie", 
        "capital": "minor", 
        "population": "17749", 
        "population_proper": "17749"
    }, 
    {
        "city": "Koby\u0142ka", 
        "lat": "52.3395", 
        "lng": "21.1959", 
        "country": "Poland", 
        "iso2": "PL", 
        "admin_name": "Mazowieckie", 
        "capital": "", 
        "population": "17586", 
        "population_proper": "17586"
    }, 
    {
        "city": "Gubin", 
        "lat": "51.9500", 
        "lng": "14.7333", 
        "country": "Poland", 
        "iso2": "PL", 
        "admin_name": "Lubuskie", 
        "capital": "", 
        "population": "17150", 
        "population_proper": "17150"
    }, 
    {
        "city": "Braniewo", 
        "lat": "54.3833", 
        "lng": "19.8333", 
        "country": "Poland", 
        "iso2": "PL", 
        "admin_name": "Warmi\u0144sko-Mazurskie", 
        "capital": "minor", 
        "population": "17123", 
        "population_proper": "17123"
    }, 
    {
        "city": "Mi\u0119dzyrzec Podlaski", 
        "lat": "51.9833", 
        "lng": "22.8000", 
        "country": "Poland", 
        "iso2": "PL", 
        "admin_name": "Lubelskie", 
        "capital": "", 
        "population": "17117", 
        "population_proper": "17117"
    }, 
    {
        "city": "Brzesko", 
        "lat": "49.9667", 
        "lng": "20.6167", 
        "country": "Poland", 
        "iso2": "PL", 
        "admin_name": "Ma\u0142opolskie", 
        "capital": "minor", 
        "population": "16912", 
        "population_proper": "16912"
    }, 
    {
        "city": "Byt\u00f3w", 
        "lat": "54.1667", 
        "lng": "17.5000", 
        "country": "Poland", 
        "iso2": "PL", 
        "admin_name": "Pomorskie", 
        "capital": "minor", 
        "population": "16888", 
        "population_proper": "16888"
    }, 
    {
        "city": "Krapkowice", 
        "lat": "50.4751", 
        "lng": "17.9654", 
        "country": "Poland", 
        "iso2": "PL", 
        "admin_name": "Opolskie", 
        "capital": "minor", 
        "population": "16721", 
        "population_proper": "16721"
    }, 
    {
        "city": "Strzegom", 
        "lat": "51.0000", 
        "lng": "16.3333", 
        "country": "Poland", 
        "iso2": "PL", 
        "admin_name": "Dolno\u015bl\u0105skie", 
        "capital": "", 
        "population": "16650", 
        "population_proper": "16650"
    }, 
    {
        "city": "Rypin", 
        "lat": "53.0667", 
        "lng": "19.4500", 
        "country": "Poland", 
        "iso2": "PL", 
        "admin_name": "Kujawsko-Pomorskie", 
        "capital": "minor", 
        "population": "16558", 
        "population_proper": "16558"
    }, 
    {
        "city": "Olecko", 
        "lat": "54.0333", 
        "lng": "22.5000", 
        "country": "Poland", 
        "iso2": "PL", 
        "admin_name": "Warmi\u0144sko-Mazurskie", 
        "capital": "minor", 
        "population": "16508", 
        "population_proper": "16508"
    }, 
    {
        "city": "Z\u0142otoryja", 
        "lat": "51.1264", 
        "lng": "15.9198", 
        "country": "Poland", 
        "iso2": "PL", 
        "admin_name": "Dolno\u015bl\u0105skie", 
        "capital": "minor", 
        "population": "16479", 
        "population_proper": "16479"
    }, 
    {
        "city": "Milan\u00f3wek", 
        "lat": "52.1243", 
        "lng": "20.6654", 
        "country": "Poland", 
        "iso2": "PL", 
        "admin_name": "Mazowieckie", 
        "capital": "", 
        "population": "16419", 
        "population_proper": "16419"
    }, 
    {
        "city": "Ustka", 
        "lat": "54.5805", 
        "lng": "16.8619", 
        "country": "Poland", 
        "iso2": "PL", 
        "admin_name": "Pomorskie", 
        "capital": "", 
        "population": "16308", 
        "population_proper": "16308"
    }, 
    {
        "city": "Ustro\u0144", 
        "lat": "49.7167", 
        "lng": "18.8167", 
        "country": "Poland", 
        "iso2": "PL", 
        "admin_name": "\u015al\u0105skie", 
        "capital": "", 
        "population": "16065", 
        "population_proper": "16065"
    }, 
    {
        "city": "Przeworsk", 
        "lat": "50.0591", 
        "lng": "22.4941", 
        "country": "Poland", 
        "iso2": "PL", 
        "admin_name": "Podkarpackie", 
        "capital": "minor", 
        "population": "15713", 
        "population_proper": "15713"
    }, 
    {
        "city": "\u0141\u0119czyca", 
        "lat": "52.0583", 
        "lng": "19.2000", 
        "country": "Poland", 
        "iso2": "PL", 
        "admin_name": "\u0141\u00f3dzkie", 
        "capital": "minor", 
        "population": "15593", 
        "population_proper": "15593"
    }, 
    {
        "city": "Jelcz-Laskowice", 
        "lat": "51.0333", 
        "lng": "17.3333", 
        "country": "Poland", 
        "iso2": "PL", 
        "admin_name": "Dolno\u015bl\u0105skie", 
        "capital": "", 
        "population": "15340", 
        "population_proper": "15340"
    }, 
    {
        "city": "G\u0142ucho\u0142azy", 
        "lat": "50.3131", 
        "lng": "17.3742", 
        "country": "Poland", 
        "iso2": "PL", 
        "admin_name": "Opolskie", 
        "capital": "", 
        "population": "15293", 
        "population_proper": "15293"
    }, 
    {
        "city": "Siemiatycze", 
        "lat": "52.4272", 
        "lng": "22.8625", 
        "country": "Poland", 
        "iso2": "PL", 
        "admin_name": "Podlaskie", 
        "capital": "minor", 
        "population": "15169", 
        "population_proper": "15169"
    }, 
    {
        "city": "Che\u0142m\u017ca", 
        "lat": "53.2000", 
        "lng": "18.6000", 
        "country": "Poland", 
        "iso2": "PL", 
        "admin_name": "Kujawsko-Pomorskie", 
        "capital": "", 
        "population": "14808", 
        "population_proper": "14808"
    }, 
    {
        "city": "Cz\u0142uch\u00f3w", 
        "lat": "53.6500", 
        "lng": "17.3667", 
        "country": "Poland", 
        "iso2": "PL", 
        "admin_name": "Pomorskie", 
        "capital": "minor", 
        "population": "14625", 
        "population_proper": "14625"
    }, 
    {
        "city": "Wschowa", 
        "lat": "51.8000", 
        "lng": "16.3000", 
        "country": "Poland", 
        "iso2": "PL", 
        "admin_name": "Lubuskie", 
        "capital": "minor", 
        "population": "14607", 
        "population_proper": "14607"
    }, 
    {
        "city": "Lubsko", 
        "lat": "51.7877", 
        "lng": "14.9724", 
        "country": "Poland", 
        "iso2": "PL", 
        "admin_name": "Lubuskie", 
        "capital": "", 
        "population": "14182", 
        "population_proper": "14182"
    }, 
    {
        "city": "Dar\u0142owo", 
        "lat": "54.4167", 
        "lng": "16.4167", 
        "country": "Poland", 
        "iso2": "PL", 
        "admin_name": "Zachodniopomorskie", 
        "capital": "", 
        "population": "13943", 
        "population_proper": "13943"
    }, 
    {
        "city": "Chojn\u00f3w", 
        "lat": "51.2667", 
        "lng": "15.9333", 
        "country": "Poland", 
        "iso2": "PL", 
        "admin_name": "Dolno\u015bl\u0105skie", 
        "capital": "", 
        "population": "13904", 
        "population_proper": "13904"
    }, 
    {
        "city": "Nidzica", 
        "lat": "53.3583", 
        "lng": "20.4250", 
        "country": "Poland", 
        "iso2": "PL", 
        "admin_name": "Warmi\u0144sko-Mazurskie", 
        "capital": "minor", 
        "population": "13872", 
        "population_proper": "13872"
    }, 
    {
        "city": "G\u0142ubczyce", 
        "lat": "50.2009", 
        "lng": "17.8286", 
        "country": "Poland", 
        "iso2": "PL", 
        "admin_name": "Opolskie", 
        "capital": "minor", 
        "population": "13572", 
        "population_proper": "13572"
    }, 
    {
        "city": "Wolsztyn", 
        "lat": "52.1167", 
        "lng": "16.1167", 
        "country": "Poland", 
        "iso2": "PL", 
        "admin_name": "Wielkopolskie", 
        "capital": "minor", 
        "population": "13477", 
        "population_proper": "13477"
    }, 
    {
        "city": "Trzebnica", 
        "lat": "51.3050", 
        "lng": "17.0614", 
        "country": "Poland", 
        "iso2": "PL", 
        "admin_name": "Dolno\u015bl\u0105skie", 
        "capital": "minor", 
        "population": "13161", 
        "population_proper": "13161"
    }, 
    {
        "city": "Brzeg Dolny", 
        "lat": "51.2730", 
        "lng": "16.7081", 
        "country": "Poland", 
        "iso2": "PL", 
        "admin_name": "Dolno\u015bl\u0105skie", 
        "capital": "", 
        "population": "12816", 
        "population_proper": "12816"
    }, 
    {
        "city": "Lubacz\u00f3w", 
        "lat": "50.1556", 
        "lng": "23.1230", 
        "country": "Poland", 
        "iso2": "PL", 
        "admin_name": "Podkarpackie", 
        "capital": "minor", 
        "population": "12415", 
        "population_proper": "12415"
    }, 
    {
        "city": "W\u0119gorzewo", 
        "lat": "54.2167", 
        "lng": "21.7500", 
        "country": "Poland", 
        "iso2": "PL", 
        "admin_name": "Warmi\u0144sko-Mazurskie", 
        "capital": "minor", 
        "population": "12186", 
        "population_proper": "12186"
    }, 
    {
        "city": "Niepo\u0142omice", 
        "lat": "50.0339", 
        "lng": "20.2172", 
        "country": "Poland", 
        "iso2": "PL", 
        "admin_name": "Ma\u0142opolskie", 
        "capital": "", 
        "population": "12000", 
        "population_proper": "12000"
    }, 
    {
        "city": "Brzeszcze", 
        "lat": "50.0000", 
        "lng": "19.1500", 
        "country": "Poland", 
        "iso2": "PL", 
        "admin_name": "Ma\u0142opolskie", 
        "capital": "", 
        "population": "11921", 
        "population_proper": "11921"
    }, 
    {
        "city": "Brwin\u00f3w", 
        "lat": "52.1417", 
        "lng": "20.7167", 
        "country": "Poland", 
        "iso2": "PL", 
        "admin_name": "Mazowieckie", 
        "capital": "", 
        "population": "11743", 
        "population_proper": "11743"
    }, 
    {
        "city": "Krynica", 
        "lat": "49.4222", 
        "lng": "20.9594", 
        "country": "Poland", 
        "iso2": "PL", 
        "admin_name": "Ma\u0142opolskie", 
        "capital": "", 
        "population": "11361", 
        "population_proper": "11361"
    }, 
    {
        "city": "Miastko", 
        "lat": "54.0000", 
        "lng": "16.9833", 
        "country": "Poland", 
        "iso2": "PL", 
        "admin_name": "Pomorskie", 
        "capital": "", 
        "population": "11123", 
        "population_proper": "11123"
    }, 
    {
        "city": "Wis\u0142a", 
        "lat": "49.6667", 
        "lng": "18.8667", 
        "country": "Poland", 
        "iso2": "PL", 
        "admin_name": "\u015al\u0105skie", 
        "capital": "", 
        "population": "11048", 
        "population_proper": "11048"
    }, 
    {
        "city": "Warka", 
        "lat": "51.7833", 
        "lng": "21.2000", 
        "country": "Poland", 
        "iso2": "PL", 
        "admin_name": "Mazowieckie", 
        "capital": "", 
        "population": "11035", 
        "population_proper": "11035"
    }, 
    {
        "city": "Nowe Miasto Lubawskie", 
        "lat": "53.4167", 
        "lng": "19.5833", 
        "country": "Poland", 
        "iso2": "PL", 
        "admin_name": "Warmi\u0144sko-Mazurskie", 
        "capital": "minor", 
        "population": "10997", 
        "population_proper": "10997"
    }, 
    {
        "city": "Ciechocinek", 
        "lat": "52.8833", 
        "lng": "18.7833", 
        "country": "Poland", 
        "iso2": "PL", 
        "admin_name": "Kujawsko-Pomorskie", 
        "capital": "", 
        "population": "10874", 
        "population_proper": "10874"
    }, 
    {
        "city": "Koronowo", 
        "lat": "53.3137", 
        "lng": "17.9370", 
        "country": "Poland", 
        "iso2": "PL", 
        "admin_name": "Kujawsko-Pomorskie", 
        "capital": "", 
        "population": "10818", 
        "population_proper": "10818"
    }, 
    {
        "city": "Biskupiec", 
        "lat": "53.8647", 
        "lng": "20.9569", 
        "country": "Poland", 
        "iso2": "PL", 
        "admin_name": "Warmi\u0144sko-Mazurskie", 
        "capital": "", 
        "population": "10539", 
        "population_proper": "10539"
    }, 
    {
        "city": "Krzeszowice", 
        "lat": "50.1333", 
        "lng": "19.6333", 
        "country": "Poland", 
        "iso2": "PL", 
        "admin_name": "Ma\u0142opolskie", 
        "capital": "", 
        "population": "10281", 
        "population_proper": "10281"
    }, 
    {
        "city": "Ozimek", 
        "lat": "50.6731", 
        "lng": "18.2131", 
        "country": "Poland", 
        "iso2": "PL", 
        "admin_name": "Opolskie", 
        "capital": "", 
        "population": "10000", 
        "population_proper": "10000"
    }, 
    {
        "city": "Lw\u00f3wek \u015al\u0105ski", 
        "lat": "51.1167", 
        "lng": "15.5833", 
        "country": "Poland", 
        "iso2": "PL", 
        "admin_name": "Dolno\u015bl\u0105skie", 
        "capital": "minor", 
        "population": "9500", 
        "population_proper": "9500"
    }, 
    {
        "city": "Zi\u0119bice", 
        "lat": "50.6000", 
        "lng": "17.0444", 
        "country": "Poland", 
        "iso2": "PL", 
        "admin_name": "Dolno\u015bl\u0105skie", 
        "capital": "", 
        "population": "9154", 
        "population_proper": "9154"
    }, 
    {
        "city": "Kamie\u0144 Pomorski", 
        "lat": "53.9697", 
        "lng": "14.7858", 
        "country": "Poland", 
        "iso2": "PL", 
        "admin_name": "Zachodniopomorskie", 
        "capital": "minor", 
        "population": "9144", 
        "population_proper": "9144"
    }, 
    {
        "city": "Stary S\u0105cz", 
        "lat": "49.5625", 
        "lng": "20.6364", 
        "country": "Poland", 
        "iso2": "PL", 
        "admin_name": "Ma\u0142opolskie", 
        "capital": "", 
        "population": "9056", 
        "population_proper": "9056"
    }, 
    {
        "city": "\u017bychlin", 
        "lat": "52.2453", 
        "lng": "19.6236", 
        "country": "Poland", 
        "iso2": "PL", 
        "admin_name": "\u0141\u00f3dzkie", 
        "capital": "", 
        "population": "9021", 
        "population_proper": "9021"
    }, 
    {
        "city": "Po\u0142aniec", 
        "lat": "50.4333", 
        "lng": "21.2833", 
        "country": "Poland", 
        "iso2": "PL", 
        "admin_name": "\u015awi\u0119tokrzyskie", 
        "capital": "", 
        "population": "8419", 
        "population_proper": "8419"
    }, 
    {
        "city": "Prabuty", 
        "lat": "53.7558", 
        "lng": "19.1975", 
        "country": "Poland", 
        "iso2": "PL", 
        "admin_name": "Pomorskie", 
        "capital": "", 
        "population": "8215", 
        "population_proper": "8215"
    }, 
    {
        "city": "Trzemeszno", 
        "lat": "52.5614", 
        "lng": "17.8231", 
        "country": "Poland", 
        "iso2": "PL", 
        "admin_name": "Wielkopolskie", 
        "capital": "", 
        "population": "7792", 
        "population_proper": "7792"
    }, 
    {
        "city": "Reszel", 
        "lat": "54.0504", 
        "lng": "21.1458", 
        "country": "Poland", 
        "iso2": "PL", 
        "admin_name": "Warmi\u0144sko-Mazurskie", 
        "capital": "", 
        "population": "7721", 
        "population_proper": "7721"
    }, 
    {
        "city": "Zb\u0105szy\u0144", 
        "lat": "52.2531", 
        "lng": "15.9178", 
        "country": "Poland", 
        "iso2": "PL", 
        "admin_name": "Wielkopolskie", 
        "capital": "", 
        "population": "7264", 
        "population_proper": "7264"
    }, 
    {
        "city": "Be\u0142\u017cyce", 
        "lat": "51.1833", 
        "lng": "22.2667", 
        "country": "Poland", 
        "iso2": "PL", 
        "admin_name": "Lubelskie", 
        "capital": "", 
        "population": "7090", 
        "population_proper": "7090"
    }, 
    {
        "city": "Sob\u00f3tka", 
        "lat": "50.8986", 
        "lng": "16.7444", 
        "country": "Poland", 
        "iso2": "PL", 
        "admin_name": "Dolno\u015bl\u0105skie", 
        "capital": "", 
        "population": "6965", 
        "population_proper": "6965"
    }, 
    {
        "city": "Gryf\u00f3w \u015al\u0105ski", 
        "lat": "51.0308", 
        "lng": "15.4202", 
        "country": "Poland", 
        "iso2": "PL", 
        "admin_name": "Dolno\u015bl\u0105skie", 
        "capital": "", 
        "population": "6943", 
        "population_proper": "6943"
    }, 
    {
        "city": "G\u0142uszyca", 
        "lat": "50.6874", 
        "lng": "16.3717", 
        "country": "Poland", 
        "iso2": "PL", 
        "admin_name": "Dolno\u015bl\u0105skie", 
        "capital": "", 
        "population": "6855", 
        "population_proper": "6855"
    }, 
    {
        "city": "Gniew", 
        "lat": "53.8333", 
        "lng": "18.8333", 
        "country": "Poland", 
        "iso2": "PL", 
        "admin_name": "Pomorskie", 
        "capital": "", 
        "population": "6844", 
        "population_proper": "6844"
    }, 
    {
        "city": "K\u00f3rnik", 
        "lat": "52.2367", 
        "lng": "17.0986", 
        "country": "Poland", 
        "iso2": "PL", 
        "admin_name": "Wielkopolskie", 
        "capital": "", 
        "population": "6807", 
        "population_proper": "6807"
    }, 
    {
        "city": "Pi\u0142awa G\u00f3rna", 
        "lat": "50.6833", 
        "lng": "16.7500", 
        "country": "Poland", 
        "iso2": "PL", 
        "admin_name": "Dolno\u015bl\u0105skie", 
        "capital": "", 
        "population": "6673", 
        "population_proper": "6673"
    }, 
    {
        "city": "Mszczon\u00f3w", 
        "lat": "51.9742", 
        "lng": "20.5267", 
        "country": "Poland", 
        "iso2": "PL", 
        "admin_name": "Mazowieckie", 
        "capital": "", 
        "population": "6323", 
        "population_proper": "6323"
    }, 
    {
        "city": "D\u0105browa Bia\u0142ostocka", 
        "lat": "53.6500", 
        "lng": "23.3500", 
        "country": "Poland", 
        "iso2": "PL", 
        "admin_name": "Podlaskie", 
        "capital": "", 
        "population": "6226", 
        "population_proper": "6226"
    }, 
    {
        "city": "Gogolin", 
        "lat": "50.4881", 
        "lng": "18.0239", 
        "country": "Poland", 
        "iso2": "PL", 
        "admin_name": "Opolskie", 
        "capital": "", 
        "population": "6116", 
        "population_proper": "6116"
    }, 
    {
        "city": "Gryb\u00f3w", 
        "lat": "49.6244", 
        "lng": "20.9483", 
        "country": "Poland", 
        "iso2": "PL", 
        "admin_name": "Ma\u0142opolskie", 
        "capital": "", 
        "population": "6038", 
        "population_proper": "6038"
    }, 
    {
        "city": "Kazimierza Wielka", 
        "lat": "50.2656", 
        "lng": "20.4936", 
        "country": "Poland", 
        "iso2": "PL", 
        "admin_name": "\u015awi\u0119tokrzyskie", 
        "capital": "minor", 
        "population": "5848", 
        "population_proper": "5848"
    }, 
    {
        "city": "Jedlicze", 
        "lat": "49.7164", 
        "lng": "21.6456", 
        "country": "Poland", 
        "iso2": "PL", 
        "admin_name": "Podkarpackie", 
        "capital": "", 
        "population": "5766", 
        "population_proper": "5766"
    }, 
    {
        "city": "\u015amigiel", 
        "lat": "52.0134", 
        "lng": "16.5270", 
        "country": "Poland", 
        "iso2": "PL", 
        "admin_name": "Wielkopolskie", 
        "capital": "", 
        "population": "5420", 
        "population_proper": "5420"
    }, 
    {
        "city": "Bierut\u00f3w", 
        "lat": "51.1333", 
        "lng": "17.5333", 
        "country": "Poland", 
        "iso2": "PL", 
        "admin_name": "Dolno\u015bl\u0105skie", 
        "capital": "", 
        "population": "5065", 
        "population_proper": "5065"
    }, 
    {
        "city": "Muszyna", 
        "lat": "49.3583", 
        "lng": "20.9000", 
        "country": "Poland", 
        "iso2": "PL", 
        "admin_name": "Ma\u0142opolskie", 
        "capital": "", 
        "population": "4980", 
        "population_proper": "4980"
    }, 
    {
        "city": "Karpacz", 
        "lat": "50.7783", 
        "lng": "15.7572", 
        "country": "Poland", 
        "iso2": "PL", 
        "admin_name": "Dolno\u015bl\u0105skie", 
        "capital": "", 
        "population": "4888", 
        "population_proper": "4888"
    }, 
    {
        "city": "Wolin", 
        "lat": "53.8414", 
        "lng": "14.6114", 
        "country": "Poland", 
        "iso2": "PL", 
        "admin_name": "Zachodniopomorskie", 
        "capital": "", 
        "population": "4888", 
        "population_proper": "4888"
    }, 
    {
        "city": "Kcynia", 
        "lat": "52.9919", 
        "lng": "17.4883", 
        "country": "Poland", 
        "iso2": "PL", 
        "admin_name": "Kujawsko-Pomorskie", 
        "capital": "", 
        "population": "4712", 
        "population_proper": "4712"
    }, 
    {
        "city": "Biecz", 
        "lat": "49.7360", 
        "lng": "21.2630", 
        "country": "Poland", 
        "iso2": "PL", 
        "admin_name": "Ma\u0142opolskie", 
        "capital": "", 
        "population": "4648", 
        "population_proper": "4648"
    }, 
    {
        "city": "Raci\u0105\u017c", 
        "lat": "52.7794", 
        "lng": "20.1153", 
        "country": "Poland", 
        "iso2": "PL", 
        "admin_name": "Mazowieckie", 
        "capital": "", 
        "population": "4585", 
        "population_proper": "4585"
    }, 
    {
        "city": "Kalwaria Zebrzydowska", 
        "lat": "49.8667", 
        "lng": "19.6833", 
        "country": "Poland", 
        "iso2": "PL", 
        "admin_name": "Ma\u0142opolskie", 
        "capital": "", 
        "population": "4524", 
        "population_proper": "4524"
    }, 
    {
        "city": "Brze\u015b\u0107 Kujawski", 
        "lat": "52.6053", 
        "lng": "18.9017", 
        "country": "Poland", 
        "iso2": "PL", 
        "admin_name": "Kujawsko-Pomorskie", 
        "capital": "", 
        "population": "4521", 
        "population_proper": "4521"
    }, 
    {
        "city": "G\u0105bin", 
        "lat": "52.3985", 
        "lng": "19.7351", 
        "country": "Poland", 
        "iso2": "PL", 
        "admin_name": "Mazowieckie", 
        "capital": "", 
        "population": "4173", 
        "population_proper": "4173"
    }, 
    {
        "city": "Chmielnik", 
        "lat": "50.6117", 
        "lng": "20.7497", 
        "country": "Poland", 
        "iso2": "PL", 
        "admin_name": "\u015awi\u0119tokrzyskie", 
        "capital": "", 
        "population": "3891", 
        "population_proper": "3891"
    }, 
    {
        "city": "Barwice", 
        "lat": "53.7333", 
        "lng": "16.3500", 
        "country": "Poland", 
        "iso2": "PL", 
        "admin_name": "Zachodniopomorskie", 
        "capital": "", 
        "population": "3857", 
        "population_proper": "3857"
    }, 
    {
        "city": "Siechnice", 
        "lat": "51.0367", 
        "lng": "17.1525", 
        "country": "Poland", 
        "iso2": "PL", 
        "admin_name": "Dolno\u015bl\u0105skie", 
        "capital": "", 
        "population": "3851", 
        "population_proper": "3851"
    }, 
    {
        "city": "Bra\u0144sk", 
        "lat": "52.7444", 
        "lng": "22.8377", 
        "country": "Poland", 
        "iso2": "PL", 
        "admin_name": "Podlaskie", 
        "capital": "", 
        "population": "3844", 
        "population_proper": "3844"
    }, 
    {
        "city": "Przedb\u00f3rz", 
        "lat": "51.0833", 
        "lng": "19.8833", 
        "country": "Poland", 
        "iso2": "PL", 
        "admin_name": "\u0141\u00f3dzkie", 
        "capital": "", 
        "population": "3835", 
        "population_proper": "3835"
    }, 
    {
        "city": "Hel", 
        "lat": "54.6167", 
        "lng": "18.7833", 
        "country": "Poland", 
        "iso2": "PL", 
        "admin_name": "Pomorskie", 
        "capital": "", 
        "population": "3818", 
        "population_proper": "3818"
    }, 
    {
        "city": "Na\u0142\u0119cz\u00f3w", 
        "lat": "51.2833", 
        "lng": "22.2167", 
        "country": "Poland", 
        "iso2": "PL", 
        "admin_name": "Lubelskie", 
        "capital": "", 
        "population": "3768", 
        "population_proper": "3768"
    }, 
    {
        "city": "O\u015bno Lubuskie", 
        "lat": "52.4536", 
        "lng": "14.8755", 
        "country": "Poland", 
        "iso2": "PL", 
        "admin_name": "Lubuskie", 
        "capital": "", 
        "population": "3730", 
        "population_proper": "3730"
    }, 
    {
        "city": "Byczyna", 
        "lat": "51.1167", 
        "lng": "18.2167", 
        "country": "Poland", 
        "iso2": "PL", 
        "admin_name": "Opolskie", 
        "capital": "", 
        "population": "3708", 
        "population_proper": "3708"
    }, 
    {
        "city": "Zator", 
        "lat": "49.9958", 
        "lng": "19.4378", 
        "country": "Poland", 
        "iso2": "PL", 
        "admin_name": "Ma\u0142opolskie", 
        "capital": "", 
        "population": "3702", 
        "population_proper": "3702"
    }, 
    {
        "city": "Micha\u0142owo", 
        "lat": "53.0367", 
        "lng": "23.6036", 
        "country": "Poland", 
        "iso2": "PL", 
        "admin_name": "Podlaskie", 
        "capital": "", 
        "population": "3621", 
        "population_proper": "3621"
    }, 
    {
        "city": "Tyczyn", 
        "lat": "49.9667", 
        "lng": "22.0333", 
        "country": "Poland", 
        "iso2": "PL", 
        "admin_name": "Podkarpackie", 
        "capital": "", 
        "population": "3602", 
        "population_proper": "3602"
    }, 
    {
        "city": "Szczuczyn", 
        "lat": "53.5661", 
        "lng": "22.2850", 
        "country": "Poland", 
        "iso2": "PL", 
        "admin_name": "Podlaskie", 
        "capital": "", 
        "population": "3602", 
        "population_proper": "3602"
    }, 
    {
        "city": "Kazimierz Dolny", 
        "lat": "51.3222", 
        "lng": "21.9475", 
        "country": "Poland", 
        "iso2": "PL", 
        "admin_name": "Lubelskie", 
        "capital": "", 
        "population": "3584", 
        "population_proper": "3584"
    }, 
    {
        "city": "Kowal", 
        "lat": "52.5325", 
        "lng": "19.1450", 
        "country": "Poland", 
        "iso2": "PL", 
        "admin_name": "Kujawsko-Pomorskie", 
        "capital": "", 
        "population": "3478", 
        "population_proper": "3478"
    }, 
    {
        "city": "Strumie\u0144", 
        "lat": "49.9210", 
        "lng": "18.7664", 
        "country": "Poland", 
        "iso2": "PL", 
        "admin_name": "\u015al\u0105skie", 
        "capital": "", 
        "population": "3459", 
        "population_proper": "3459"
    }, 
    {
        "city": "Alwernia", 
        "lat": "50.0667", 
        "lng": "19.5167", 
        "country": "Poland", 
        "iso2": "PL", 
        "admin_name": "Ma\u0142opolskie", 
        "capital": "", 
        "population": "3424", 
        "population_proper": "3424"
    }, 
    {
        "city": "Rzg\u00f3w", 
        "lat": "51.6622", 
        "lng": "19.4597", 
        "country": "Poland", 
        "iso2": "PL", 
        "admin_name": "\u0141\u00f3dzkie", 
        "capital": "", 
        "population": "3380", 
        "population_proper": "3380"
    }, 
    {
        "city": "Niemcza", 
        "lat": "50.7167", 
        "lng": "16.8333", 
        "country": "Poland", 
        "iso2": "PL", 
        "admin_name": "Dolno\u015bl\u0105skie", 
        "capital": "", 
        "population": "3104", 
        "population_proper": "3104"
    }, 
    {
        "city": "Uniej\u00f3w", 
        "lat": "51.9743", 
        "lng": "18.7931", 
        "country": "Poland", 
        "iso2": "PL", 
        "admin_name": "\u0141\u00f3dzkie", 
        "capital": "", 
        "population": "3064", 
        "population_proper": "3064"
    }, 
    {
        "city": "Bojanowo", 
        "lat": "51.7000", 
        "lng": "16.7500", 
        "country": "Poland", 
        "iso2": "PL", 
        "admin_name": "Wielkopolskie", 
        "capital": "", 
        "population": "2991", 
        "population_proper": "2991"
    }, 
    {
        "city": "Recz", 
        "lat": "53.2622", 
        "lng": "15.5472", 
        "country": "Poland", 
        "iso2": "PL", 
        "admin_name": "Zachodniopomorskie", 
        "capital": "", 
        "population": "2965", 
        "population_proper": "2965"
    }, 
    {
        "city": "Wilamowice", 
        "lat": "49.9000", 
        "lng": "19.1500", 
        "country": "Poland", 
        "iso2": "PL", 
        "admin_name": "\u015al\u0105skie", 
        "capital": "", 
        "population": "2813", 
        "population_proper": "2813"
    }, 
    {
        "city": "Piaski", 
        "lat": "51.1342", 
        "lng": "22.8447", 
        "country": "Poland", 
        "iso2": "PL", 
        "admin_name": "Lubelskie", 
        "capital": "", 
        "population": "2621", 
        "population_proper": "2621"
    }, 
    {
        "city": "Lipsk", 
        "lat": "53.7333", 
        "lng": "23.4000", 
        "country": "Poland", 
        "iso2": "PL", 
        "admin_name": "Podlaskie", 
        "capital": "", 
        "population": "2520", 
        "population_proper": "2520"
    }, 
    {
        "city": "Borek Wielkopolski", 
        "lat": "51.9167", 
        "lng": "17.2500", 
        "country": "Poland", 
        "iso2": "PL", 
        "admin_name": "Wielkopolskie", 
        "capital": "", 
        "population": "2474", 
        "population_proper": "2474"
    }, 
    {
        "city": "Ci\u0119\u017ckowice", 
        "lat": "49.8000", 
        "lng": "20.9667", 
        "country": "Poland", 
        "iso2": "PL", 
        "admin_name": "Ma\u0142opolskie", 
        "capital": "", 
        "population": "2454", 
        "population_proper": "2454"
    }, 
    {
        "city": "Cz\u0142opa", 
        "lat": "53.0833", 
        "lng": "16.1333", 
        "country": "Poland", 
        "iso2": "PL", 
        "admin_name": "Zachodniopomorskie", 
        "capital": "", 
        "population": "2400", 
        "population_proper": "2400"
    }, 
    {
        "city": "Frombork", 
        "lat": "54.3583", 
        "lng": "19.6833", 
        "country": "Poland", 
        "iso2": "PL", 
        "admin_name": "Warmi\u0144sko-Mazurskie", 
        "capital": "", 
        "population": "2390", 
        "population_proper": "2390"
    }, 
    {
        "city": "Trzciel", 
        "lat": "52.3667", 
        "lng": "15.8833", 
        "country": "Poland", 
        "iso2": "PL", 
        "admin_name": "Lubuskie", 
        "capital": "", 
        "population": "2348", 
        "population_proper": "2348"
    }, 
    {
        "city": "Legionowo", 
        "lat": "52.4015", 
        "lng": "20.9266", 
        "country": "Poland", 
        "iso2": "PL", 
        "admin_name": "Mazowieckie", 
        "capital": "minor", 
        "population": "", 
        "population_proper": ""
    }, 
    {
        "city": "\u015awi\u0119toch\u0142owice", 
        "lat": "50.3167", 
        "lng": "18.9167", 
        "country": "Poland", 
        "iso2": "PL", 
        "admin_name": "\u015al\u0105skie", 
        "capital": "minor", 
        "population": "", 
        "population_proper": ""
    }, 
    {
        "city": "Lubin", 
        "lat": "51.4000", 
        "lng": "16.2000", 
        "country": "Poland", 
        "iso2": "PL", 
        "admin_name": "Dolno\u015bl\u0105skie", 
        "capital": "minor", 
        "population": "", 
        "population_proper": ""
    }, 
    {
        "city": "Mi\u0144sk Mazowiecki", 
        "lat": "52.1833", 
        "lng": "21.5667", 
        "country": "Poland", 
        "iso2": "PL", 
        "admin_name": "Mazowieckie", 
        "capital": "minor", 
        "population": "", 
        "population_proper": ""
    }, 
    {
        "city": "\u017byrard\u00f3w", 
        "lat": "52.0500", 
        "lng": "20.4333", 
        "country": "Poland", 
        "iso2": "PL", 
        "admin_name": "Mazowieckie", 
        "capital": "minor", 
        "population": "", 
        "population_proper": ""
    }, 
    {
        "city": "Tczew", 
        "lat": "54.0911", 
        "lng": "18.7864", 
        "country": "Poland", 
        "iso2": "PL", 
        "admin_name": "Pomorskie", 
        "capital": "minor", 
        "population": "", 
        "population_proper": ""
    }, 
    {
        "city": "Gi\u017cycko", 
        "lat": "54.0381", 
        "lng": "21.7644", 
        "country": "Poland", 
        "iso2": "PL", 
        "admin_name": "Warmi\u0144sko-Mazurskie", 
        "capital": "minor", 
        "population": "", 
        "population_proper": ""
    }, 
    {
        "city": "Ostr\u00f3da", 
        "lat": "53.6967", 
        "lng": "19.9649", 
        "country": "Poland", 
        "iso2": "PL", 
        "admin_name": "Warmi\u0144sko-Mazurskie", 
        "capital": "minor", 
        "population": "", 
        "population_proper": ""
    }, 
    {
        "city": "Siemianowice \u015al\u0105skie", 
        "lat": "50.2758", 
        "lng": "18.9858", 
        "country": "Poland", 
        "iso2": "PL", 
        "admin_name": "\u015al\u0105skie", 
        "capital": "minor", 
        "population": "", 
        "population_proper": ""
    }, 
    {
        "city": "Puck", 
        "lat": "54.7142", 
        "lng": "18.4051", 
        "country": "Poland", 
        "iso2": "PL", 
        "admin_name": "Pomorskie", 
        "capital": "minor", 
        "population": "", 
        "population_proper": ""
    }, 
    {
        "city": "Dzia\u0142dowo", 
        "lat": "53.2396", 
        "lng": "20.1700", 
        "country": "Poland", 
        "iso2": "PL", 
        "admin_name": "Warmi\u0144sko-Mazurskie", 
        "capital": "minor", 
        "population": "", 
        "population_proper": ""
    }, 
    {
        "city": "Wejherowo", 
        "lat": "54.6000", 
        "lng": "18.2500", 
        "country": "Poland", 
        "iso2": "PL", 
        "admin_name": "Pomorskie", 
        "capital": "minor", 
        "population": "", 
        "population_proper": ""
    }, 
    {
        "city": "Soko\u0142\u00f3w Podlaski", 
        "lat": "52.4067", 
        "lng": "22.2464", 
        "country": "Poland", 
        "iso2": "PL", 
        "admin_name": "Mazowieckie", 
        "capital": "minor", 
        "population": "", 
        "population_proper": ""
    }, 
    {
        "city": "G\u0142og\u00f3w", 
        "lat": "51.6589", 
        "lng": "16.0803", 
        "country": "Poland", 
        "iso2": "PL", 
        "admin_name": "Dolno\u015bl\u0105skie", 
        "capital": "minor", 
        "population": "", 
        "population_proper": ""
    }, 
    {
        "city": "Leszno", 
        "lat": "51.8403", 
        "lng": "16.5749", 
        "country": "Poland", 
        "iso2": "PL", 
        "admin_name": "Wielkopolskie", 
        "capital": "minor", 
        "population": "", 
        "population_proper": ""
    }, 
    {
        "city": "P\u0142o\u0144sk", 
        "lat": "52.6250", 
        "lng": "20.3833", 
        "country": "Poland", 
        "iso2": "PL", 
        "admin_name": "Mazowieckie", 
        "capital": "minor", 
        "population": "", 
        "population_proper": ""
    }, 
    {
        "city": "Chojnice", 
        "lat": "53.6955", 
        "lng": "17.5570", 
        "country": "Poland", 
        "iso2": "PL", 
        "admin_name": "Pomorskie", 
        "capital": "minor", 
        "population": "", 
        "population_proper": ""
    }, 
    {
        "city": "W\u0105brze\u017ano", 
        "lat": "53.2833", 
        "lng": "18.9500", 
        "country": "Poland", 
        "iso2": "PL", 
        "admin_name": "Kujawsko-Pomorskie", 
        "capital": "minor", 
        "population": "", 
        "population_proper": ""
    }, 
    {
        "city": "Mr\u0105gowo", 
        "lat": "53.8644", 
        "lng": "21.3051", 
        "country": "Poland", 
        "iso2": "PL", 
        "admin_name": "Warmi\u0144sko-Mazurskie", 
        "capital": "minor", 
        "population": "", 
        "population_proper": ""
    }, 
    {
        "city": "Pruszcz Gda\u0144ski", 
        "lat": "54.2622", 
        "lng": "18.6363", 
        "country": "Poland", 
        "iso2": "PL", 
        "admin_name": "Pomorskie", 
        "capital": "minor", 
        "population": "", 
        "population_proper": ""
    }, 
    {
        "city": "Dzier\u017coni\u00f3w", 
        "lat": "50.7281", 
        "lng": "16.6511", 
        "country": "Poland", 
        "iso2": "PL", 
        "admin_name": "Dolno\u015bl\u0105skie", 
        "capital": "minor", 
        "population": "", 
        "population_proper": ""
    }, 
    {
        "city": "Zdu\u0144ska Wola", 
        "lat": "51.6000", 
        "lng": "18.9333", 
        "country": "Poland", 
        "iso2": "PL", 
        "admin_name": "\u0141\u00f3dzkie", 
        "capital": "minor", 
        "population": "", 
        "population_proper": ""
    }, 
    {
        "city": "Ole\u015bnica", 
        "lat": "51.2000", 
        "lng": "17.3833", 
        "country": "Poland", 
        "iso2": "PL", 
        "admin_name": "Dolno\u015bl\u0105skie", 
        "capital": "minor", 
        "population": "", 
        "population_proper": ""
    }, 
    {
        "city": "Ostr\u00f3w Wielkopolski", 
        "lat": "51.6500", 
        "lng": "17.7000", 
        "country": "Poland", 
        "iso2": "PL", 
        "admin_name": "Wielkopolskie", 
        "capital": "minor", 
        "population": "", 
        "population_proper": ""
    }, 
    {
        "city": "Turek", 
        "lat": "52.0167", 
        "lng": "18.5000", 
        "country": "Poland", 
        "iso2": "PL", 
        "admin_name": "Wielkopolskie", 
        "capital": "minor", 
        "population": "", 
        "population_proper": ""
    }, 
    {
        "city": "Z\u0142ot\u00f3w", 
        "lat": "53.3603", 
        "lng": "17.0408", 
        "country": "Poland", 
        "iso2": "PL", 
        "admin_name": "Wielkopolskie", 
        "capital": "minor", 
        "population": "", 
        "population_proper": ""
    }, 
    {
        "city": "Chodzie\u017c", 
        "lat": "52.9901", 
        "lng": "16.9122", 
        "country": "Poland", 
        "iso2": "PL", 
        "admin_name": "Wielkopolskie", 
        "capital": "minor", 
        "population": "", 
        "population_proper": ""
    }, 
    {
        "city": "I\u0142awa", 
        "lat": "53.5964", 
        "lng": "19.5656", 
        "country": "Poland", 
        "iso2": "PL", 
        "admin_name": "Warmi\u0144sko-Mazurskie", 
        "capital": "minor", 
        "population": "", 
        "population_proper": ""
    }, 
    {
        "city": "Golub-Dobrzy\u0144", 
        "lat": "53.1000", 
        "lng": "19.0500", 
        "country": "Poland", 
        "iso2": "PL", 
        "admin_name": "Kujawsko-Pomorskie", 
        "capital": "minor", 
        "population": "", 
        "population_proper": ""
    }, 
    {
        "city": "Starachowice", 
        "lat": "51.0500", 
        "lng": "21.0667", 
        "country": "Poland", 
        "iso2": "PL", 
        "admin_name": "\u015awi\u0119tokrzyskie", 
        "capital": "minor", 
        "population": "", 
        "population_proper": ""
    }, 
    {
        "city": "Ko\u0142o", 
        "lat": "52.2000", 
        "lng": "18.6333", 
        "country": "Poland", 
        "iso2": "PL", 
        "admin_name": "Wielkopolskie", 
        "capital": "minor", 
        "population": "", 
        "population_proper": ""
    }, 
    {
        "city": "B\u0119dzin", 
        "lat": "50.3250", 
        "lng": "19.1333", 
        "country": "Poland", 
        "iso2": "PL", 
        "admin_name": "\u015al\u0105skie", 
        "capital": "minor", 
        "population": "", 
        "population_proper": ""
    }, 
    {
        "city": "Tomasz\u00f3w Mazowiecki", 
        "lat": "51.5314", 
        "lng": "20.0089", 
        "country": "Poland", 
        "iso2": "PL", 
        "admin_name": "\u0141\u00f3dzkie", 
        "capital": "minor", 
        "population": "", 
        "population_proper": ""
    }, 
    {
        "city": "Tomasz\u00f3w Lubelski", 
        "lat": "50.4500", 
        "lng": "23.4167", 
        "country": "Poland", 
        "iso2": "PL", 
        "admin_name": "Lubelskie", 
        "capital": "minor", 
        "population": "", 
        "population_proper": ""
    }, 
    {
        "city": "Ko\u015bcierzyna", 
        "lat": "54.1167", 
        "lng": "17.9833", 
        "country": "Poland", 
        "iso2": "PL", 
        "admin_name": "Pomorskie", 
        "capital": "minor", 
        "population": "", 
        "population_proper": ""
    }, 
    {
        "city": "Aleksandr\u00f3w Kujawski", 
        "lat": "52.8763", 
        "lng": "18.7004", 
        "country": "Poland", 
        "iso2": "PL", 
        "admin_name": "Kujawsko-Pomorskie", 
        "capital": "minor", 
        "population": "", 
        "population_proper": ""
    }, 
    {
        "city": "Nowy S\u0105cz", 
        "lat": "49.6239", 
        "lng": "20.6972", 
        "country": "Poland", 
        "iso2": "PL", 
        "admin_name": "Ma\u0142opolskie", 
        "capital": "minor", 
        "population": "", 
        "population_proper": ""
    }, 
    {
        "city": "Sochaczew", 
        "lat": "52.2250", 
        "lng": "20.2333", 
        "country": "Poland", 
        "iso2": "PL", 
        "admin_name": "Mazowieckie", 
        "capital": "minor", 
        "population": "", 
        "population_proper": ""
    }, 
    {
        "city": "Piekary \u015al\u0105skie", 
        "lat": "50.3833", 
        "lng": "18.9500", 
        "country": "Poland", 
        "iso2": "PL", 
        "admin_name": "\u015al\u0105skie", 
        "capital": "minor", 
        "population": "", 
        "population_proper": ""
    }, 
    {
        "city": "D\u0119bica", 
        "lat": "50.0515", 
        "lng": "21.4114", 
        "country": "Poland", 
        "iso2": "PL", 
        "admin_name": "Podkarpackie", 
        "capital": "minor", 
        "population": "", 
        "population_proper": ""
    }, 
    {
        "city": "Stargard Szczeci\u0144ski", 
        "lat": "53.3387", 
        "lng": "15.0448", 
        "country": "Poland", 
        "iso2": "PL", 
        "admin_name": "Zachodniopomorskie", 
        "capital": "minor", 
        "population": "", 
        "population_proper": ""
    }, 
    {
        "city": "Kra\u015bnik", 
        "lat": "50.9167", 
        "lng": "22.2167", 
        "country": "Poland", 
        "iso2": "PL", 
        "admin_name": "Lubelskie", 
        "capital": "minor", 
        "population": "", 
        "population_proper": ""
    }, 
    {
        "city": "Lipno", 
        "lat": "52.8452", 
        "lng": "19.1826", 
        "country": "Poland", 
        "iso2": "PL", 
        "admin_name": "Kujawsko-Pomorskie", 
        "capital": "minor", 
        "population": "", 
        "population_proper": ""
    }, 
    {
        "city": "Zgierz", 
        "lat": "51.8564", 
        "lng": "19.4061", 
        "country": "Poland", 
        "iso2": "PL", 
        "admin_name": "\u0141\u00f3dzkie", 
        "capital": "minor", 
        "population": "", 
        "population_proper": ""
    }, 
    {
        "city": "Luba\u0144", 
        "lat": "51.1167", 
        "lng": "15.3000", 
        "country": "Poland", 
        "iso2": "PL", 
        "admin_name": "Dolno\u015bl\u0105skie", 
        "capital": "minor", 
        "population": "", 
        "population_proper": ""
    }, 
    {
        "city": "Brodnica", 
        "lat": "53.2500", 
        "lng": "19.4000", 
        "country": "Poland", 
        "iso2": "PL", 
        "admin_name": "Kujawsko-Pomorskie", 
        "capital": "minor", 
        "population": "", 
        "population_proper": ""
    }, 
    {
        "city": "Nowy Dw\u00f3r Mazowiecki", 
        "lat": "52.4333", 
        "lng": "20.6833", 
        "country": "Poland", 
        "iso2": "PL", 
        "admin_name": "Mazowieckie", 
        "capital": "minor", 
        "population": "", 
        "population_proper": ""
    }, 
    {
        "city": "\u0141owicz", 
        "lat": "52.1000", 
        "lng": "19.9333", 
        "country": "Poland", 
        "iso2": "PL", 
        "admin_name": "\u0141\u00f3dzkie", 
        "capital": "minor", 
        "population": "", 
        "population_proper": ""
    }, 
    {
        "city": "Zambr\u00f3w", 
        "lat": "52.9853", 
        "lng": "22.2422", 
        "country": "Poland", 
        "iso2": "PL", 
        "admin_name": "Podlaskie", 
        "capital": "minor", 
        "population": "", 
        "population_proper": ""
    }, 
    {
        "city": "Szczecinek", 
        "lat": "53.7079", 
        "lng": "16.6994", 
        "country": "Poland", 
        "iso2": "PL", 
        "admin_name": "Zachodniopomorskie", 
        "capital": "minor", 
        "population": "", 
        "population_proper": ""
    }, 
    {
        "city": "Sejny", 
        "lat": "54.1000", 
        "lng": "23.3500", 
        "country": "Poland", 
        "iso2": "PL", 
        "admin_name": "Podlaskie", 
        "capital": "minor", 
        "population": "", 
        "population_proper": ""
    }, 
    {
        "city": "Grajewo", 
        "lat": "53.6500", 
        "lng": "22.4500", 
        "country": "Poland", 
        "iso2": "PL", 
        "admin_name": "Podlaskie", 
        "capital": "minor", 
        "population": "", 
        "population_proper": ""
    }, 
    {
        "city": "O\u0142awa", 
        "lat": "50.9333", 
        "lng": "17.3000", 
        "country": "Poland", 
        "iso2": "PL", 
        "admin_name": "Dolno\u015bl\u0105skie", 
        "capital": "minor", 
        "population": "", 
        "population_proper": ""
    }, 
    {
        "city": "Czarnk\u00f3w", 
        "lat": "52.9000", 
        "lng": "16.5667", 
        "country": "Poland", 
        "iso2": "PL", 
        "admin_name": "Wielkopolskie", 
        "capital": "minor", 
        "population": "", 
        "population_proper": ""
    }, 
    {
        "city": "Lidzbark Warmi\u0144ski", 
        "lat": "54.1167", 
        "lng": "20.5833", 
        "country": "Poland", 
        "iso2": "PL", 
        "admin_name": "Warmi\u0144sko-Mazurskie", 
        "capital": "minor", 
        "population": "", 
        "population_proper": ""
    }, 
    {
        "city": "Kamienna G\u00f3ra", 
        "lat": "50.7833", 
        "lng": "16.0333", 
        "country": "Poland", 
        "iso2": "PL", 
        "admin_name": "Dolno\u015bl\u0105skie", 
        "capital": "minor", 
        "population": "", 
        "population_proper": ""
    }, 
    {
        "city": "S\u0142upca", 
        "lat": "52.3000", 
        "lng": "17.8667", 
        "country": "Poland", 
        "iso2": "PL", 
        "admin_name": "Wielkopolskie", 
        "capital": "minor", 
        "population": "", 
        "population_proper": ""
    }, 
    {
        "city": "Konin", 
        "lat": "52.2275", 
        "lng": "18.2614", 
        "country": "Poland", 
        "iso2": "PL", 
        "admin_name": "Wielkopolskie", 
        "capital": "minor", 
        "population": "", 
        "population_proper": ""
    }, 
    {
        "city": "Jastrz\u0119bie-Zdr\u00f3j", 
        "lat": "49.9500", 
        "lng": "18.5833", 
        "country": "Poland", 
        "iso2": "PL", 
        "admin_name": "\u015al\u0105skie", 
        "capital": "minor", 
        "population": "", 
        "population_proper": ""
    }, 
    {
        "city": "Krosno", 
        "lat": "49.6833", 
        "lng": "21.7500", 
        "country": "Poland", 
        "iso2": "PL", 
        "admin_name": "Podkarpackie", 
        "capital": "minor", 
        "population": "", 
        "population_proper": ""
    }, 
    {
        "city": "Skar\u017cysko-Kamienna", 
        "lat": "51.1167", 
        "lng": "20.9167", 
        "country": "Poland", 
        "iso2": "PL", 
        "admin_name": "\u015awi\u0119tokrzyskie", 
        "capital": "minor", 
        "population": "", 
        "population_proper": ""
    }, 
    {
        "city": "Sanok", 
        "lat": "49.5500", 
        "lng": "22.2167", 
        "country": "Poland", 
        "iso2": "PL", 
        "admin_name": "Podkarpackie", 
        "capital": "minor", 
        "population": "", 
        "population_proper": ""
    }, 
    {
        "city": "Radziej\u00f3w", 
        "lat": "52.6333", 
        "lng": "18.5167", 
        "country": "Poland", 
        "iso2": "PL", 
        "admin_name": "Kujawsko-Pomorskie", 
        "capital": "minor", 
        "population": "", 
        "population_proper": ""
    }, 
    {
        "city": "Jas\u0142o", 
        "lat": "49.7333", 
        "lng": "21.4667", 
        "country": "Poland", 
        "iso2": "PL", 
        "admin_name": "Podkarpackie", 
        "capital": "minor", 
        "population": "", 
        "population_proper": ""
    }, 
    {
        "city": "Bartoszyce", 
        "lat": "54.2535", 
        "lng": "20.8082", 
        "country": "Poland", 
        "iso2": "PL", 
        "admin_name": "Warmi\u0144sko-Mazurskie", 
        "capital": "minor", 
        "population": "", 
        "population_proper": ""
    }, 
    {
        "city": "Mak\u00f3w Mazowiecki", 
        "lat": "52.8649", 
        "lng": "21.1005", 
        "country": "Poland", 
        "iso2": "PL", 
        "admin_name": "Mazowieckie", 
        "capital": "minor", 
        "population": "", 
        "population_proper": ""
    }, 
    {
        "city": "Sierpc", 
        "lat": "52.8833", 
        "lng": "19.6667", 
        "country": "Poland", 
        "iso2": "PL", 
        "admin_name": "Mazowieckie", 
        "capital": "minor", 
        "population": "", 
        "population_proper": ""
    }, 
    {
        "city": "Wodzis\u0142aw \u015al\u0105ski", 
        "lat": "50.0000", 
        "lng": "18.4500", 
        "country": "Poland", 
        "iso2": "PL", 
        "admin_name": "\u015al\u0105skie", 
        "capital": "minor", 
        "population": "", 
        "population_proper": ""
    }, 
    {
        "city": "\u017bory", 
        "lat": "50.0500", 
        "lng": "18.7000", 
        "country": "Poland", 
        "iso2": "PL", 
        "admin_name": "\u015al\u0105skie", 
        "capital": "minor", 
        "population": "", 
        "population_proper": ""
    }, 
    {
        "city": "Radomsko", 
        "lat": "51.0667", 
        "lng": "19.4500", 
        "country": "Poland", 
        "iso2": "PL", 
        "admin_name": "\u0141\u00f3dzkie", 
        "capital": "minor", 
        "population": "", 
        "population_proper": ""
    }, 
    {
        "city": "Wo\u0142omin", 
        "lat": "52.3500", 
        "lng": "21.2333", 
        "country": "Poland", 
        "iso2": "PL", 
        "admin_name": "Mazowieckie", 
        "capital": "minor", 
        "population": "", 
        "population_proper": ""
    }, 
    {
        "city": "Limanowa", 
        "lat": "49.7167", 
        "lng": "20.4667", 
        "country": "Poland", 
        "iso2": "PL", 
        "admin_name": "Ma\u0142opolskie", 
        "capital": "minor", 
        "population": "", 
        "population_proper": ""
    }, 
    {
        "city": "Radzy\u0144 Podlaski", 
        "lat": "51.7833", 
        "lng": "22.6167", 
        "country": "Poland", 
        "iso2": "PL", 
        "admin_name": "Lubelskie", 
        "capital": "minor", 
        "population": "", 
        "population_proper": ""
    }, 
    {
        "city": "S\u0142awno", 
        "lat": "54.3667", 
        "lng": "16.6833", 
        "country": "Poland", 
        "iso2": "PL", 
        "admin_name": "Zachodniopomorskie", 
        "capital": "minor", 
        "population": "", 
        "population_proper": ""
    }, 
    {
        "city": "Garwolin", 
        "lat": "51.9000", 
        "lng": "21.6167", 
        "country": "Poland", 
        "iso2": "PL", 
        "admin_name": "Mazowieckie", 
        "capital": "minor", 
        "population": "", 
        "population_proper": ""
    }, 
    {
        "city": "Stalowa Wola", 
        "lat": "50.5833", 
        "lng": "22.0500", 
        "country": "Poland", 
        "iso2": "PL", 
        "admin_name": "Podkarpackie", 
        "capital": "minor", 
        "population": "", 
        "population_proper": ""
    }, 
    {
        "city": "Zamo\u015b\u0107", 
        "lat": "50.7206", 
        "lng": "23.2586", 
        "country": "Poland", 
        "iso2": "PL", 
        "admin_name": "Lubelskie", 
        "capital": "minor", 
        "population": "", 
        "population_proper": ""
    }, 
    {
        "city": "Racib\u00f3rz", 
        "lat": "50.0919", 
        "lng": "18.2193", 
        "country": "Poland", 
        "iso2": "PL", 
        "admin_name": "\u015al\u0105skie", 
        "capital": "minor", 
        "population": "", 
        "population_proper": ""
    }, 
    {
        "city": "Pi\u0142a", 
        "lat": "53.1500", 
        "lng": "16.7333", 
        "country": "Poland", 
        "iso2": "PL", 
        "admin_name": "Wielkopolskie", 
        "capital": "minor", 
        "population": "", 
        "population_proper": ""
    }, 
    {
        "city": "\u017bywiec", 
        "lat": "49.6892", 
        "lng": "19.2058", 
        "country": "Poland", 
        "iso2": "PL", 
        "admin_name": "\u015al\u0105skie", 
        "capital": "minor", 
        "population": "", 
        "population_proper": ""
    }, 
    {
        "city": "\u015awidwin", 
        "lat": "53.7667", 
        "lng": "15.7833", 
        "country": "Poland", 
        "iso2": "PL", 
        "admin_name": "Zachodniopomorskie", 
        "capital": "minor", 
        "population": "", 
        "population_proper": ""
    }, 
    {
        "city": "Przasnysz", 
        "lat": "53.0167", 
        "lng": "20.8833", 
        "country": "Poland", 
        "iso2": "PL", 
        "admin_name": "Mazowieckie", 
        "capital": "minor", 
        "population": "", 
        "population_proper": ""
    }, 
    {
        "city": "W\u0142odawa", 
        "lat": "51.5500", 
        "lng": "23.5500", 
        "country": "Poland", 
        "iso2": "PL", 
        "admin_name": "Lubelskie", 
        "capital": "minor", 
        "population": "", 
        "population_proper": ""
    }, 
    {
        "city": "\u017baga\u0144", 
        "lat": "51.6167", 
        "lng": "15.3167", 
        "country": "Poland", 
        "iso2": "PL", 
        "admin_name": "Lubuskie", 
        "capital": "minor", 
        "population": "", 
        "population_proper": ""
    }, 
    {
        "city": "Piaseczno", 
        "lat": "52.0667", 
        "lng": "21.0167", 
        "country": "Poland", 
        "iso2": "PL", 
        "admin_name": "Mazowieckie", 
        "capital": "minor", 
        "population": "", 
        "population_proper": ""
    }, 
    {
        "city": "Wysokie Mazowieckie", 
        "lat": "52.9192", 
        "lng": "22.5144", 
        "country": "Poland", 
        "iso2": "PL", 
        "admin_name": "Podlaskie", 
        "capital": "minor", 
        "population": "", 
        "population_proper": ""
    }, 
    {
        "city": "Le\u017cajsk", 
        "lat": "50.2655", 
        "lng": "22.4186", 
        "country": "Poland", 
        "iso2": "PL", 
        "admin_name": "Podkarpackie", 
        "capital": "minor", 
        "population": "", 
        "population_proper": ""
    }, 
    {
        "city": "Zawiercie", 
        "lat": "50.5000", 
        "lng": "19.4167", 
        "country": "Poland", 
        "iso2": "PL", 
        "admin_name": "\u015al\u0105skie", 
        "capital": "minor", 
        "population": "", 
        "population_proper": ""
    }, 
    {
        "city": "Hrubiesz\u00f3w", 
        "lat": "50.8167", 
        "lng": "23.8833", 
        "country": "Poland", 
        "iso2": "PL", 
        "admin_name": "Lubelskie", 
        "capital": "minor", 
        "population": "", 
        "population_proper": ""
    }, 
    {
        "city": "K\u0119dzierzyn-Ko\u017ale", 
        "lat": "50.3333", 
        "lng": "18.2000", 
        "country": "Poland", 
        "iso2": "PL", 
        "admin_name": "Opolskie", 
        "capital": "minor", 
        "population": "", 
        "population_proper": ""
    }, 
    {
        "city": "Bieru\u0144", 
        "lat": "50.0911", 
        "lng": "19.0910", 
        "country": "Poland", 
        "iso2": "PL", 
        "admin_name": "\u015al\u0105skie", 
        "capital": "minor", 
        "population": "", 
        "population_proper": ""
    }, 
    {
        "city": "Krasnystaw", 
        "lat": "51.0000", 
        "lng": "23.1667", 
        "country": "Poland", 
        "iso2": "PL", 
        "admin_name": "Lubelskie", 
        "capital": "minor", 
        "population": "", 
        "population_proper": ""
    }, 
    {
        "city": "Myszk\u00f3w", 
        "lat": "50.5752", 
        "lng": "19.3246", 
        "country": "Poland", 
        "iso2": "PL", 
        "admin_name": "\u015al\u0105skie", 
        "capital": "minor", 
        "population": "", 
        "population_proper": ""
    }, 
    {
        "city": "Kolno", 
        "lat": "53.4106", 
        "lng": "21.9339", 
        "country": "Poland", 
        "iso2": "PL", 
        "admin_name": "Podlaskie", 
        "capital": "minor", 
        "population": "", 
        "population_proper": ""
    }, 
    {
        "city": "S\u0142upsk", 
        "lat": "54.4667", 
        "lng": "17.0333", 
        "country": "Poland", 
        "iso2": "PL", 
        "admin_name": "Pomorskie", 
        "capital": "minor", 
        "population": "", 
        "population_proper": ""
    }, 
    {
        "city": "W\u0119gr\u00f3w", 
        "lat": "52.3995", 
        "lng": "22.0163", 
        "country": "Poland", 
        "iso2": "PL", 
        "admin_name": "Mazowieckie", 
        "capital": "minor", 
        "population": "", 
        "population_proper": ""
    }, 
    {
        "city": "Wadowice", 
        "lat": "49.8833", 
        "lng": "19.5000", 
        "country": "Poland", 
        "iso2": "PL", 
        "admin_name": "Ma\u0142opolskie", 
        "capital": "minor", 
        "population": "", 
        "population_proper": ""
    },